dispatch_ts,mode_type,location_type,street,xstreet1,xstreet2,x_cord,y_cord,lat,long
2015-01-01 00:24:27+00,mv,Intersection,,TRAIN ST,WESTGLOW ST,777243.68,2930930.11,42.2897499,-71.05251533
2015-01-01 03:50:33+00,mv,Street,RIVER ST,WALTER ST,WINTHROP ST,758927.71,2918981.6,42.25707875,-71.12010538
2015-01-01 10:14:13+00,ped,Intersection,,LONDON ST,MERIDIAN ST,780725.19,2961410.17,42.37333727,-71.03903959
2015-01-01 18:23:57+00,bike,Intersection,,OLNEY ST,INWOOD ST,772710.48,2936614.62,42.30541255,-71.06916303
2015-01-01 18:42:19+00,ped,Intersection,,WASHINGTON ST,COLUMBUS AVE,764813.61,2940364.63,42.31580852,-71.09829029
2015-01-02 06:06:55+00,mv,Intersection,,COLUMBIA RD,SEAVER ST,769115.17,2936167.25,42.304234,-71.08246198
2015-01-02 08:25:04+00,mv,Street,CHELSEA ST,PUTNAM ST,PRESCOTT ST,783054.48,2962801.61,42.37711591,-71.03038393
2015-01-02 08:38:45+00,mv,Intersection,,PERKINS ST,S HUNTINGTON AVE,761062.46,2942457.67,42.32159956,-71.11212436
2015-01-02 12:07:25+00,mv,Street,AMERICAN LEGION HWY,CANTERBURY ST,MOUNT HOPE ST,761358.04,2929232.8,42.28513849,-71.11106716
2015-01-02 13:21:30+00,mv,Street,LINDEN ST,GARDNER ST,BRIGHTON AVE,756348.08,2953873.08,42.35304875,-71.13014883
2015-01-02 14:34:26+00,mv,Street,CHARLESGATE EAST NULL,MARLBOROUGH ST,BEACON ST,766622.25,2952788.71,42.34972188,-71.09136331
2015-01-02 18:58:09+00,mv,Street,FANEUIL ST,GOODENOUGH ST,PARSONS ST,749258.91,2954898.3,42.35568108,-71.15550356
2015-01-02 22:27:44+00,bike,Street,KENSINGTON ST,DEAD END,ELMORE ST,766791.85,2942087.73,42.32062263,-71.09109428
2015-01-02 22:30:43+00,mv,Intersection,,VFW PKWY,WEST ROXBURY PKWY,752002.07,2933173.38,42.29623109,-71.14576934
2015-01-03 06:25:18+00,mv,Intersection,,CEMETERY RD,GLEN LN,763538.39,2934780.26,42.30050108,-71.10310128
2015-01-03 15:46:08+00,ped,Street,SCHOOL ST,CITY HALL AVE,WASHINGTON ST,775310.33,2955667.24,42.35764141,-71.05919543
2015-01-03 16:56:14+00,mv,Other,,,,773694.31,2948234.09,42.33728315,-71.06530718
2015-01-03 18:00:21+00,mv,Intersection,,NEW WASHINGTON ST,SOUTH ST,760463.17,2935281.09,42.3019141,-71.11446028
2015-01-03 19:13:41+00,mv,Street,TERMINAL RD,TERMINAL B,TERMINAL C,786433.71,2958611.12,42.365649,-71.01814154
2015-01-03 23:15:34+00,ped,Intersection,,WASHINGTON ST,KNEELAND ST,774291.24,2953190.66,42.35087575,-71.06300546
2015-01-04 02:31:16+00,mv,Street,INTERVALE ST,COLEUS PARK,MAGNOLIA ST,771020.03,2938134.38,42.30970591,-71.07531112
2015-01-04 02:48:36+00,mv,Intersection,,CHARLES ST,BEACON ST,772433.67,2955079.66,42.35608512,-71.06984207
2015-01-04 03:50:24+00,mv,Street,HOLBORN ST,BLUE HILL AVE,KALADA PARK,769724.05,2939848.05,42.31418036,-71.08029687
2015-01-04 10:16:25+00,mv,Intersection,,MILK ST,KILBY ST,776467.93,2955563.66,42.35735642,-71.05490727
2015-01-04 14:50:47+00,mv,Intersection,,WESTVILLE ST,DITSON ST,774032.74,2935301.62,42.30179118,-71.0642998
2015-01-04 22:36:36+00,ped,Street,FRANKLIN ST,FERN ST,BRENTWOOD ST,755360.66,2956369.9,42.35984281,-71.13298201
2015-01-05 08:08:13+00,bike,Street,TERRACE ST,ALLEGHANY ST,CEDAR ST,764920.29,2945047.13,42.32873409,-71.09805204
2015-01-05 08:57:36+00,mv,Intersection,,WARREN ST,MARTIN LUTHER KING JR BLVD,769174.97,2941159.38,42.31793185,-71.08215052
2015-01-05 08:59:46+00,mv,Street,CENTRE ST,GAY HEAD ST,SUNNYSIDE ST,762889.15,2942785.49,42.32267054,-71.10539846
2015-01-05 09:16:46+00,mv,Intersection,,EUSTIS ST,ALBANY ST,769884.41,2945444.64,42.32968122,-71.07944928
2015-01-05 12:00:18+00,bike,Street,DORCHESTER AVE,ADAMS ST,ADAMS ST,775335.45,2935310.1,42.30182627,-71.05971595
2015-01-05 12:33:36+00,ped,Street,RIVER ST,WOOD AVE,REDDY AVE,762357.08,2920715.78,42.26246894,-71.10858711
2015-01-05 18:33:40+00,mv,Street,SEAVER ST,HAROLD ST,WALNUT AVE,766096.84,2939316.64,42.31271752,-71.09384495
2015-01-05 20:38:11+00,mv,Intersection,,ASHMONT ST,NEWHALL ST,777526.74,2930779.61,42.28933284,-71.05147212
2015-01-05 22:11:53+00,mv,Street,GARFIELD AVE,WOODGLEN RD,FARADAY ST,758898.88,2913629.57,42.24252933,-71.12077529
2015-01-06 12:55:55+00,mv,Other,,,,755468.43,2960783.86,42.37195523,-71.13251732
2015-01-06 13:37:02+00,mv,Intersection,,AMES ST,STRATTON ST,768786.97,2930931.83,42.28987211,-71.08376967
2015-01-06 15:49:26+00,mv,Intersection,,WASHINGTON ST,PETER PARLEY RD,763655.65,2938767.38,42.31144047,-71.10259917
2015-01-06 16:46:32+00,mv,Other,,,,777090.46,2942090.45,42.32037661,-71.05286538
2015-01-06 17:29:35+00,mv,Street,NORFOLK AVE,FRANKLIN CT,E COTTAGE ST,773417.63,2942612.48,42.32191466,-71.06632514
2015-01-06 20:31:58+00,mv,Street,MASSPORT HAUL RD,PUMPHOUSE RD,RAMP,780612.89,2951481.6,42.34594474,-71.03981528
2015-01-06 21:37:48+00,mv,Intersection,,ASHMONT ST,NEPONSET AVE,778350.68,2931061.86,42.29009542,-71.0484215
2015-01-06 23:00:15+00,mv,Intersection,,PERKINS ST,JAMAICAWAY,759859.09,2942243.64,42.32102719,-71.11657758
2015-01-07 07:09:48+00,mv,Street,SOLDIERS FIELD RD,CAMBRIDGE ST,RAMP - WESTERN AVENUE TO SOLDI,759325.81,2956457.17,42.36010369,-71.11752421
2015-01-07 07:46:19+00,mv,Other,,,,765523.26,2953038.24,42.35057619,-71.09544423
2015-01-07 08:22:13+00,mv,Street,GEORGE ST,HAMPDEN ST,MAGAZINE ST,771657.55,2944245.35,42.32627726,-71.07302567
2015-01-07 08:29:30+00,mv,Intersection,,BLAKE ST,RUSKINDALE RD,762828.03,2922809.6,42.26766181,-71.10593151
2015-01-07 08:38:39+00,mv,Intersection,,BEACON ST,PARK DR,762915.06,2951616.77,42.34670918,-71.10511726
2015-01-07 09:00:15+00,mv,Intersection,,WARREN ST,DECKARD ST,768869.16,2940232.63,42.31539291,-71.08329798
2015-01-07 09:01:26+00,mv,Street,LYON ST,DORCHESTER AVE,ADAMS ST,775277.23,2937034.15,42.30651471,-71.05966037
2015-01-07 09:12:54+00,mv,Street,WALNUT AVE,COBDEN ST,WESTMINSTER CT,766274.53,2940565.88,42.31641662,-71.09323849
2015-01-07 09:54:59+00,mv,Street,WESTERN AVE,SPEEDWAY AVE,CALLAHAN PL,754966.43,2957633.62,42.36330247,-71.13442021
2015-01-07 10:19:46+00,ped,Street,CONGRESS ST,DORCHESTER AVE,SLEEPER ST,777902.73,2953549.75,42.35141503,-71.05010093
2015-01-07 13:18:47+00,mv,Intersection,,PRENTISS ST,TREMONT ST,766377.05,2946618.9,42.33295016,-71.09239923
2015-01-07 17:09:38+00,mv,Intersection,,MORTON ST,CANTERBURY ST,765391.17,2931998.92,42.29284506,-71.09630125
2015-01-07 17:41:57+00,mv,Intersection,,FAIRBANKS ST,FANEUIL ST,747285.37,2953633.66,42.35242762,-71.16290433
2015-01-07 17:47:14+00,ped,Street,HARVARD AVE,BRAINERD RD,DEAD END,756167.65,2952401.74,42.34903155,-71.12988191
2015-01-07 18:49:31+00,mv,Other,,,,757188.16,2955353.69,42.35703421,-71.12624131
2015-01-08 09:05:13+00,mv,Intersection,,MORTON ST,CANTERBURY ST,765391.17,2931998.92,42.29284506,-71.09630125
2015-01-08 09:09:13+00,ped,Intersection,,DERNE ST,TEMPLE ST,774126.8,2956307.41,42.35943049,-71.06355479
2015-01-08 10:00:45+00,mv,Other,,,,777363.69,2941470.72,42.31867212,-71.05186712
2015-01-08 12:27:12+00,mv,Street,PATTERSON WAY,OLD COLONY AVE,REV RICHARD A BURKE ST,777344.94,2946120.42,42.33121276,-71.05149095
2015-01-08 13:16:04+00,mv,Intersection,,MORTON ST,HARVARD ST,766058.12,2930122.76,42.28768807,-71.09386923
2015-01-08 13:18:16+00,mv,Street,SARATOGA ST,NEPTUNE RD,BREMEN ST,784394.39,2964177.73,42.38073466,-71.02530878
2015-01-08 14:07:07+00,mv,Intersection,,RIDLON RD,GREENFIELD RD,762937.42,2923865.49,42.27055787,-71.10550933
2015-01-08 14:19:54+00,mv,Street,COLUMBIA RD,BRUNSWICK ST,DEVON ST,770844.78,2937406.17,42.30760606,-71.07603834
2015-01-08 14:52:30+00,mv,Intersection,,BEACON ST,PARK DR,762915.06,2951616.77,42.34670918,-71.10511726
2015-01-08 15:34:22+00,mv,Other,,,,778878.69,2933450.42,42.29664207,-71.04642313
2015-01-08 17:38:42+00,mv,Street,SOLDIERS FIELD RD,N BEACON ST,SOLDIERS FIELD PL,748792.67,2955902.24,42.35895143,-71.15737941
2015-01-08 19:10:13+00,ped,Street,MASSACHUSETTS AVE,CLEARWAY ST,SAINT STEPHEN ST,768172.17,2951054.6,42.34486526,-71.08655032
2015-01-08 19:37:55+00,mv,Intersection,,ROSSMORE RD,STEDMAN ST,762508.15,2936290.37,42.30465801,-71.10688377
2015-01-08 19:39:10+00,mv,Intersection,,MELNEA CASS BLVD,HARRISON AVE,769926.56,2946332.93,42.33211815,-71.0792772
2015-01-09 07:58:03+00,mv,Intersection,,CUMMINS HWY,AMERICAN LEGION HWY,759869.24,2926956.71,42.27907879,-71.116794
2015-01-09 09:31:08+00,mv,Street,RIVER ST,MEADOWBANK AVE,LEAHAVEN RD,769387.06,2924788.02,42.2713336,-71.08152178
2015-01-09 11:52:33+00,mv,Intersection,,WASHINGTON ST,HAYES RD,755725.45,2928285.11,42.28277408,-71.13208494
2015-01-09 12:28:25+00,mv,Intersection,,SOLDIERS FIELD RD,CAMBRIDGE ST,759503.82,2956796.27,42.36096452,-71.11765003
2015-01-09 13:00:21+00,mv,Intersection,,SOLDIERS FIELD RD,CAMBRIDGE ST,759503.82,2956796.27,42.36096452,-71.11765003
2015-01-09 13:01:12+00,mv,Street,RIVER ST,LITTLE RIVER ST,WACHUSETT ST,763744.65,2921692.97,42.26361728,-71.10256271
2015-01-09 13:37:17+00,mv,Other,,,,771636.62,2955495.87,42.3572382,-71.07278319
2015-01-09 14:17:25+00,mv,Intersection,,HYDE PARK AVE,CUMMINS HWY,759279.1,2927283.6,42.27998305,-71.11896929
2015-01-09 15:31:11+00,mv,Intersection,,JERSEY ST,BOYLSTON ST,764893.09,2950849.4,42.34457813,-71.09781364
2015-01-09 16:57:14+00,mv,Intersection,,PARK DR,BUSWELL ST,762796.15,2951925.65,42.34755826,-71.10555184
2015-01-10 01:07:08+00,mv,Street,SOUTH ST,BOYNTON ST,HALL ST,760462.52,2936435.87,42.3050858,-71.11462005
2015-01-10 04:08:02+00,mv,Street,COLUMBIA RD,RAMP - RT 93 NB TO COLUMBIA RO,OLD COLONY AVE,777222.02,2942182.07,42.32142749,-71.05238117
2015-01-10 06:29:04+00,mv,Street,SEAVER ST,MAPLE ST,ELM HILL AVE,767377.64,2937358.98,42.30751619,-71.08887716
2015-01-10 07:32:44+00,mv,Street,CENTRE ST,CENTRE LN,GLENHAVEN RD,747746.48,2923930.75,42.2709385,-71.16188699
2015-01-10 10:22:56+00,mv,Street,ADAMS ST,MEDWAY ST,DORCHESTER AVE,773135.54,2924530.99,42.27223361,-71.06781405
2015-01-10 15:25:34+00,mv,Intersection,,COLUMBIA RD,GLENDALE ST,772929.02,2939283.82,42.31273393,-71.06830521
2015-01-10 15:57:18+00,mv,Other,,,,776228.44,2943628.75,42.32461013,-71.05602316
2015-01-10 16:56:00+00,mv,Intersection,,CEDAR ST,COLUMBUS AVE,765144.07,2944867.37,42.32815996,-71.09698981
2015-01-10 17:12:46+00,mv,Street,NORTHAMPTON ST,FELLOWS ST,HARRISON AVE,771050.6,2946880.78,42.33360048,-71.07512386
2015-01-10 17:46:44+00,mv,Street,COMMONWEALTH AVE,BEACON ST,KENMORE ST,765621.53,2952295.9,42.34879221,-71.09510166
2015-01-10 18:08:53+00,mv,Intersection,,HILL TOP ST,GRANITE AVE,776817.62,2926993.1,42.27895263,-71.05416601
2015-01-10 20:20:39+00,ped,Street,BLUE HILL AVE,CHARLOTTE ST,MCLELLAN ST,768196.58,2934939.26,42.30087666,-71.08587996
2015-01-10 21:21:37+00,mv,Intersection,,WARREN ST,QUINCY ST,768990.14,2940590.07,42.31637212,-71.08284421
2015-01-10 23:46:49+00,mv,Intersection,,BLUE HILL AVE,RIVER ST,766090.4,2922831.17,42.26767901,-71.09387824
2015-01-11 00:29:32+00,mv,Street,ADAMS ST,ARCADIA ST,DORCHESTER AVE,775186.38,2935369.39,42.30195719,-71.06004664
2015-01-11 09:47:43+00,mv,Intersection,,OLNEY ST,BOWDOIN ST,772927.61,2936542.87,42.30521265,-71.0683617
2015-01-11 12:47:48+00,mv,Intersection,,ADAMS ST,LINDEN ST,774781.3,2936618.62,42.30539456,-71.06150772
2015-01-11 23:15:59+00,mv,Street,JULIAN ST,HOWARD AVE,JUDSON ST,771382,2941481.61,42.31868671,-71.07409293
2015-01-12 00:41:31+00,mv,Intersection,,FRONTAGE RD,GENERAL CASIMIR PULASKI SKWY,773824.67,2947537.61,42.33537017,-71.06483817
2015-01-12 06:53:16+00,ped,Intersection,,OCEAN ST,ASHMONT ST,773406.42,2929234.36,42.28515102,-71.06672892
2015-01-12 09:21:00+00,mv,Intersection,,WARREN ST,HOLBORN ST,768861.79,2940207.63,42.31532441,-71.08332568
2015-01-12 10:11:34+00,mv,Intersection,,MORTON ST,EVANS ST,768582.97,2927644.61,42.2808545,-71.08458278
2015-01-12 13:28:03+00,bike,Intersection,,COMMONWEALTH AVE,HARVARD AVE,755895.54,2952987.13,42.35055573,-71.13106155
2015-01-12 13:57:29+00,mv,Intersection,,HARVARD AVE,CAMBRIDGE ST,755429.26,2954801.16,42.35553901,-71.13275759
2015-01-12 15:00:42+00,ped,Street,HEATH ST,SCHILLER ST,LAWN ST,762479.91,2944150.2,42.3265075,-71.10654828
2015-01-12 15:51:18+00,mv,Intersection,,MASSACHUSETTS AVE,ALBANY ST,771522.63,2946890.41,42.33362614,-71.07336417
2015-01-12 16:52:55+00,ped,Intersection,,BERKELEY ST,COMMONWEALTH AVE,771361.71,2953904.26,42.35287456,-71.07382971
2015-01-12 16:59:16+00,bike,Intersection,,COMMONWEALTH AVE,HARRY AGGANIS WAY,759271.58,2953293.82,42.35135655,-71.11856726
2015-01-12 17:15:29+00,ped,Intersection,,GENEVA AVE,OLNEY ST,771366.54,2936428.37,42.30491999,-71.07413463
2015-01-12 17:42:15+00,ped,Intersection,,BOSTON ST,W HOWELL ST,775383.11,2943866.89,42.32527562,-71.05914451
2015-01-12 18:48:53+00,ped,Intersection,,L ST,E FIFTH ST,781807.13,2947066.64,42.33396227,-71.03532485
2015-01-13 05:26:10+00,mv,Intersection,,WEST ST,HILTON ST,758780.95,2920354.09,42.26097403,-71.12092388
2015-01-13 08:00:00+00,ped,Intersection,,CHARLES ST,GENEVA AVE,773817.42,2934534.62,42.2996895,-71.06511019
2015-01-13 08:23:01+00,mv,Intersection,,MORTON ST,FULLER ST,769401.73,2927254.85,42.27977399,-71.08156429
2015-01-13 08:24:41+00,ped,Intersection,,WASHINGTON ST,ASHMONT ST,772201.73,2929303.11,42.28535638,-71.07117962
2015-01-13 09:03:42+00,ped,Intersection,,BRIGHTON AVE,ALLSTON ST,754978.7,2953962.66,42.35324345,-71.13443781
2015-01-13 11:13:16+00,mv,Street,PARKLAWN RD,WILLOWDEAN AVE,WELD ST,751509.23,2931763.82,42.29235949,-71.14760417
2015-01-13 11:15:43+00,mv,Street,QUINCY ST,MAGNOLIA ST,CEYLON ST,771716.8,2939070.89,42.31215023,-71.07279661
2015-01-13 16:06:32+00,mv,Street,WALNUT AVE,RUTHVEN ST,WALNUT PARK,766013.45,2939865.05,42.31442198,-71.09386253
2015-01-13 18:27:51+00,mv,Street,RIVER ST,FREMONT ST,RIVERBANK PL,766860.4,2923351.24,42.26929551,-71.09122852
2015-01-13 22:12:07+00,mv,Street,DORCHESTER AVE,DRACUT ST,PEABODY SQ,774101.71,2929654.26,42.28629371,-71.06415264
2015-01-13 22:52:59+00,ped,Intersection,,MASSACHUSETTS AVE,WASHINGTON ST,770528.43,2947920.44,42.33646617,-71.0770222
2015-01-14 08:55:15+00,ped,Street,CONGRESS ST,NEW SUDBURY ST,NORTH ST,775323.84,2957492.62,42.36272214,-71.05904863
2015-01-14 14:07:20+00,mv,Street,CAMBRIDGE ST,RAMP - SOLDIERS FIELD ROAD WB,DEAD END,771166.79,2965095.54,42.38388631,-71.07456268
2015-01-14 14:09:55+00,mv,Intersection,,RIVER ST,HYDE PARK AVE,757925.77,2918478.09,42.25583651,-71.12411357
2015-01-14 19:03:38+00,mv,Intersection,,ALWIN ST,DEDHAM PKWY,752666.44,2918046.84,42.25471508,-71.14354735
2015-01-14 20:25:22+00,mv,Intersection,,AMERICAN LEGION HWY,WALK HILL ST,762564.28,2930126.11,42.28774219,-71.10678133
2015-01-15 07:15:50+00,mv,Street,BLUE HILL AVE,CHENEY ST,SCHUYLER ST,768871.33,2937676.63,42.3083363,-71.08330594
2015-01-15 07:23:27+00,ped,Street,WASHINGTON ST,WOODSIDE AVE,GLEN RD,763121.47,2938137.06,42.30961608,-71.10439409
2015-01-15 07:40:25+00,mv,Intersection,,TRUMAN PKWY,WILLIAMS AVE,759116.27,2916921.58,42.25155083,-71.11974169
2015-01-15 08:13:42+00,mv,Street,ENNEKING PKWY,GORDON AVE,SMITH FIELD RD,756665.46,2919365.31,42.25828377,-71.12874915
2015-01-15 09:14:08+00,ped,Street,DORCHESTER AVE,BAILEY ST,FULLER ST,774277,2928848.97,42.28427328,-71.06472021
2015-01-15 13:07:25+00,ped,Intersection,,HARRISON AVE,OAK ST,774434.8,2952213.15,42.34819142,-71.06249293
2015-01-15 15:01:43+00,mv,Street,CHESTNUT AVE,ROYS ST,CENTRE ST,763804.09,2942600.24,42.32199337,-71.10213931
2015-01-15 16:52:27+00,mv,Street,AMERICAN LEGION HWY,MOUNT HOPE ST,CANTERBURY ST,761021.47,2928613.96,42.28381958,-71.11277097
2015-01-15 19:36:34+00,mv,Intersection,,CENTRE ST,TALBOT AVE,772297.23,2931045.86,42.29013728,-71.07079429
2015-01-15 20:20:19+00,mv,Intersection,,COLONIAL AVE,MILLET ST,770949.98,2931245.61,42.2907039,-71.07576982
2015-01-15 20:45:29+00,bike,Intersection,,HUNTINGTON AVE,MASSACHUSETTS AVE,768353.16,2950235.9,42.34284918,-71.08502585
2015-01-15 21:17:32+00,mv,Other,,,,774540.88,2960774.42,42.3716822,-71.06193787
2015-01-16 02:17:17+00,ped,Street,HARVARD AVE,BRIGHTON AVE,GLENVILLE AVE,755630.31,2953810.02,42.35281526,-71.13203961
2015-01-16 05:06:20+00,mv,Intersection,,RAMP,ELIOT BRG,757162.87,2959902.18,42.36951568,-71.12626114
2015-01-16 07:20:24+00,mv,Intersection,,RAMP - WESTERN AVENUE TO SOLDI,RAMP,758356.79,2959335.62,42.36794659,-71.12185236
2015-01-16 07:26:40+00,mv,Intersection,,RADCLIFFE ST,HARVARD ST,770400.67,2933523.87,42.29696306,-71.07775831
2015-01-16 08:10:06+00,mv,Intersection,,SOLDIERS FIELD RD,WESTERN AVE,759394.76,2957971.82,42.3641916,-71.11803407
2015-01-16 10:01:58+00,mv,Other,,,,777099.68,2938852.52,42.31149147,-71.05289404
2015-01-16 13:09:14+00,mv,Intersection,,COMMONWEALTH AVE,CHESTNUT HILL AVE,749882.19,2948454.4,42.33818696,-71.15337531
2015-01-16 13:51:13+00,mv,Intersection,,SAINT JAMES AVE,DARTMOUTH ST,770540.1,2952597.16,42.34929907,-71.07689323
2015-01-16 15:32:33+00,mv,Other,,,,776776.93,2937217.41,42.30700928,-71.05411887
2015-01-16 15:49:09+00,ped,Street,ELM HILL AVE,BROOKLEDGE ST,SEAVER ST,767400.5,2937642.89,42.3082054,-71.08855159
2015-01-16 16:48:30+00,ped,Intersection,,GENEVA AVE,WESTVILLE ST,773202.73,2935014.87,42.30101591,-71.06737331
2015-01-16 17:32:52+00,mv,Intersection,,CENTRE ST,VFW PKWY,755512,2933401.04,42.29681507,-71.13279233
2015-01-16 22:28:44+00,mv,Street,BENNINGTON ST,AUSTIN AVE,LEVERETT AVE,791702.14,2967084,42.38891908,-70.99851683
2015-01-17 02:13:02+00,mv,Intersection,,AMERICAN LEGION HWY,KINGBIRD RD,765864.47,2932054.11,42.29299034,-71.09455097
2015-01-17 09:12:08+00,mv,Intersection,,DENNIS ST,WOODVILLE PARK,770869.17,2942652.14,42.32200511,-71.07585885
2015-01-17 09:52:38+00,mv,Street,BOYLSTON ST,DARTMOUTH ST,CLARENDON ST,770893.78,2953177.31,42.3506063,-71.07542158
2015-01-17 10:50:25+00,mv,Street,CHESTNUT HILL AVE,ATWOOD RD,HATHERLY RD,749861.16,2950099.41,42.34280711,-71.15372248
2015-01-17 13:08:07+00,ped,Intersection,,ASPINWALL RD,WASHINGTON ST,772038.04,2931718.86,42.2919876,-71.07173972
2015-01-17 13:42:17+00,mv,Other,,,,767834.35,2952003.04,42.34770518,-71.08691322
2015-01-17 15:42:29+00,mv,Intersection,,MILTON AVE,GALLIVAN BLVD,771257.73,2926675.85,42.27815998,-71.07471663
2015-01-17 15:47:42+00,mv,Intersection,,SHIRLEY ST,NORFOLK AVE,772677.42,2943770.39,42.32504876,-71.06915162
2015-01-17 21:23:13+00,mv,Intersection,,AMERICAN LEGION HWY,BLUE HILL AVE,767885.27,2933934.35,42.29812323,-71.08704846
2015-01-17 22:33:57+00,mv,Intersection,,ADAMS ST,LINDEN ST,774781.3,2936618.62,42.30539456,-71.06150772
2015-01-17 23:59:17+00,mv,Intersection,,BROOKVIEW ST,HARVARD ST,766510.35,2930581.61,42.28894126,-71.09218982
2015-01-18 02:09:25+00,mv,Intersection,,DAKOTA ST,BOYD ST,772983.94,2934590.16,42.29985353,-71.06819001
2015-01-18 02:25:30+00,mv,Intersection,,AMERICAN LEGION HWY,CUMMINS HWY,759869.24,2926956.71,42.27907879,-71.116794
2015-01-18 02:28:20+00,mv,Intersection,,WARDMAN RD,WESTMINSTER AVE,765860.72,2940327.88,42.31569408,-71.09441943
2015-01-18 06:17:40+00,mv,Other,,,,771845.36,2956502.6,42.35999781,-71.07199221
2015-01-18 10:27:11+00,ped,Intersection,,BEACON ST,DAVID G MUGAR WAY,771633.67,2954812.03,42.35536177,-71.07280677
2015-01-18 11:49:55+00,mv,Street,PLEASANT ST,TRESCOTT ST,PEARL ST,775150.1,2940301.78,42.31545038,-71.05979679
2015-01-18 14:29:43+00,mv,Street,JEWISH WAR VETERANS DR,GLEN LN,CEMETERY RD,767475.19,2934997.32,42.3011387,-71.08834648
2015-01-18 15:25:54+00,mv,Street,WREN ST,ORIOLE ST,GERTRUDE RD,750837.16,2927284.96,42.2801762,-71.15006171
2015-01-18 22:52:59+00,ped,Street,LAMARTINE ST,CENTRE ST,ROYS ST,764047.09,2942685.19,42.32211802,-71.10093642
2015-01-19 06:43:33+00,mv,Street,HARVARD ST,STONECREST RD,CUMMINS HWY,762418.72,2925717.33,42.27582508,-71.10843829
2015-01-19 07:19:34+00,mv,Intersection,,CENTRE ST,VFW PKWY,755512,2933401.04,42.29681507,-71.13279233
2015-01-19 14:50:17+00,mv,Street,MERIDIAN ST,GOVE ST,LONDON ST,780654.94,2961183.46,42.372727,-71.03903201
2015-01-19 16:24:06+00,mv,Street,HARVARD AVE,GLENVILLE AVE,COMMONWEALTH AVE,755818.02,2953149.66,42.35100211,-71.13134734
2015-01-19 23:39:36+00,mv,Street,DORCHESTER AVE,DEXTER ST,TRANSIT ST,775879.34,2945652,42.33016641,-71.05695779
2015-01-20 06:35:06+00,bike,Intersection,,MORTON ST,NORFOLK ST,767944.69,2927933.98,42.28165705,-71.08693623
2015-01-20 07:00:55+00,ped,Intersection,,HUMBOLDT AVE,MARTIN LUTHER KING JR BLVD,768127.97,2941606.63,42.31917314,-71.08601372
2015-01-20 08:25:47+00,bike,Street,WOODROW AVE,IRMA ST,LUCERNE ST,767455.27,2929560.6,42.28611419,-71.08870955
2015-01-20 09:52:19+00,ped,Intersection,,BOYNTON ST,SOUTH ST,760409.21,2936564.12,42.30543548,-71.11463832
2015-01-21 05:51:11+00,mv,Street,FREEPORT ST,DORCHESTER AVE,FREEPORT WAY,775844.7,2936949.28,42.30628703,-71.05757482
2015-01-21 09:32:32+00,ped,Intersection,,SAVIN HILL AVE,DORCHESTER AVE,775931.11,2939390.88,42.31298548,-71.05720399
2015-01-21 16:29:49+00,ped,Street,JOHN ELIOT SQ,ROXBURY ST,DUDLEY ST,766616.35,2945488.86,42.32995097,-71.09117417
2015-01-21 20:09:25+00,ped,Street,CENTRE ST,RITCHIE ST,LAMARTINE ST,764320.75,2942908.64,42.32277943,-71.10007056
2015-01-22 00:14:22+00,bike,Street,FOURTH ST,FRONTAGE RD,FOUNDRY ST,774678.93,2950240.91,42.34276028,-71.06163472
2015-01-22 03:24:56+00,ped,Street,BERKELEY ST,BOYLSTON ST,PUBLIC ALLEY NO. 438,771548.23,2953395.99,42.35147401,-71.0731613
2015-01-22 08:17:52+00,mv,Intersection,,MILTON ST,HYDE PARK AVE,755789.26,2912426.82,42.23925684,-71.1321019
2015-01-22 08:54:57+00,bike,Intersection,,N BEACON ST,LEO M BIRMINGHAM PKWY,749543.14,2955728.16,42.35815021,-71.15452037
2015-01-22 11:17:09+00,mv,Intersection,,LONGWOOD AVE,BINNEY ST,762654.77,2948539.4,42.33826807,-71.10613267
2015-01-22 13:51:15+00,mv,Street,CENTRE ST,REMINGTON ST,CENTRE AVE,774032.2,2931998.07,42.29273338,-71.06419517
2015-01-22 15:54:22+00,mv,Street,COLUMBIA RD,TICKNOR ST,L ST,781865.56,2945305.89,42.32952691,-71.03520118
2015-01-22 16:43:47+00,ped,Street,DORCHESTER AVE,ADAMS ST,CHARLES ST,775205.66,2934985.13,42.30090637,-71.05997128
2015-01-22 18:55:01+00,bike,Intersection,,JAMAICAWAY,POND ST,759751.27,2940273.13,42.31562133,-71.11700898
2015-01-22 21:36:57+00,mv,Intersection,,BENNINGTON ST,MOORE ST,786275.85,2964841.49,42.38266866,-71.0184267
2015-01-23 04:27:48+00,ped,Street,ALLEN ST,HYDE PARK AVE,WINTER ST,756820.71,2915444.73,42.24762558,-71.12816471
2015-01-23 06:44:30+00,ped,Street,DARTMOUTH ST,COLUMBUS AVE,STUART ST,770866.64,2952117.42,42.34785063,-71.07617745
2015-01-23 06:47:07+00,mv,Street,HUNTINGTON AVE,FENWOOD RD,CALUMET ST,762959.53,2946935.89,42.3339684,-71.10510581
2015-01-23 08:38:26+00,ped,Street,STOUGHTON ST,EVERETT AVE,STOUGHTON TER,774456.55,2940473.04,42.31596308,-71.06264745
2015-01-23 10:17:29+00,mv,Other,,,,773694.31,2948234.09,42.33728315,-71.06530718
2015-01-23 11:23:39+00,ped,Street,WASHINGTON ST,BEETHOVEN ST,SCHOOL ST,764619.81,2940098.43,42.31507692,-71.09900475
2015-01-23 11:53:53+00,mv,Intersection,,HIGHLAND ST,MILLMONT ST,766420.16,2944916.39,42.32827784,-71.0922699
2015-01-23 14:04:44+00,mv,Street,COLUMBIA RD,BIRD ST,HANCOCK ST,773226.52,2939983.86,42.31464933,-71.0671883
2015-01-23 14:38:51+00,mv,Street,COLUMBIA RD,HOLDEN ST,HAMLET ST,774127.31,2941440.83,42.31855388,-71.0636287
2015-01-23 15:22:06+00,mv,Intersection,,BLUE HILL AVE,BABSON ST,766252,2923754.78,42.27021135,-71.09326493
2015-01-23 15:33:14+00,ped,Street,DEDHAM ST,SHAWMUT AVE,IVANHOE ST,771458.72,2950036.79,42.34238659,-71.07334651
2015-01-23 16:02:47+00,mv,Intersection,,MAIN ST,MEDFORD ST,771897.9,2965039.79,42.38342324,-71.07163919
2015-01-23 17:42:11+00,ped,Other,,,,755846.54,2911686.87,42.23722567,-71.13190217
2015-01-23 18:26:17+00,ped,Street,SOUTHAMPTON ST,NEWMARKET SQ,ALLSTATE RD,773860.21,2945963.33,42.33103374,-71.06474227
2015-01-23 18:33:34+00,ped,Intersection,,MASSACHUSETTS AVE,SHAWMUT AVE,770244.03,2948240.82,42.33734916,-71.0780682
2015-01-23 20:53:12+00,mv,Intersection,,E BERKELEY ST,WASHINGTON ST,773510.36,2950664.65,42.34395525,-71.06594178
2015-01-23 22:46:12+00,ped,Intersection,,HARVARD AVE,BRIGHTON AVE,755608.2,2953907.91,42.35308579,-71.13210983
2015-01-23 23:03:49+00,bike,Intersection,,HARVARD AVE,FARRINGTON AVE,755531.01,2954323.41,42.35422685,-71.13238877
2015-01-24 01:32:18+00,mv,Intersection,,ERIE ST,WASHINGTON ST,770177.6,2935866.62,42.30339472,-71.07854004
2015-01-24 01:39:19+00,mv,Intersection,,COMMONWEALTH AVE,SILBER WAY,764133.28,2952529.66,42.34919861,-71.10059508
2015-01-24 02:32:54+00,bike,Intersection,,SUMMER ST,ATLANTIC AVE,776338.91,2953824.94,42.35258719,-71.05541814
2015-01-24 06:22:12+00,mv,Intersection,,CENTRE ST,ALLANDALE ST,756824.33,2934637.62,42.30019272,-71.12792172
2015-01-24 08:57:29+00,mv,Intersection,,DUDLEY ST,DEARBORN ST,769934.82,2945041.46,42.3285742,-71.07927021
2015-01-24 09:45:09+00,mv,Intersection,,BLUE HILL AVE,GLENWAY ST,768285.66,2935317.37,42.30191299,-71.08554366
2015-01-24 09:52:39+00,ped,Street,COMMONWEALTH AVE,HINSDALE MALL,BLANDFORD MALL,764045.7,2952430.4,42.34921321,-71.10085815
2015-01-24 10:57:54+00,mv,Intersection,,EVANS ST,MILTON AVE,770829.67,2928502.86,42.28317926,-71.07626483
2015-01-24 13:51:53+00,mv,Street,WINDSOR ST,SHAWMUT AVE,WARWICK ST,768700.83,2947331.57,42.33486232,-71.08380473
2015-01-24 18:33:55+00,mv,Intersection,,BLUE HILL AVE,WOODHAVEN ST,766132.61,2924917.77,42.27340425,-71.09368557
2015-01-24 22:22:01+00,ped,Intersection,,EVANS ST,MORTON ST,768582.97,2927644.61,42.2808545,-71.08458278
2015-01-25 12:20:00+00,ped,Intersection,,NEWBURY ST,GLOUCESTER ST,768583.91,2952540.91,42.34917112,-71.08413075
2015-01-25 14:51:44+00,mv,Street,WILLIAM T MORRISSEY BLVD,RAMP - WILLIAM T MORRISSEY BOU,REDFIELD ST,779326.45,2930572.61,42.28885414,-71.04459715
2015-01-25 16:40:30+00,mv,Street,GEORGE ST,LANGDON ST,SHIRLEY ST,772037.32,2943471.02,42.32428487,-71.07139941
2015-01-25 17:36:10+00,mv,Street,WASHINGTON ST,MESHAKA ST,DEAD END,747955.91,2919296.13,42.2581904,-71.16092074
2015-01-25 17:44:20+00,mv,Intersection,,THATCHER ST,METROPOLITAN AVE,759490.02,2922415.84,42.26662296,-71.11827039
2015-01-25 19:28:30+00,mv,Street,DORCHESTER AVE,LYON ST,LINDEN ST,775518.73,2936856.73,42.30603779,-71.05877935
2015-01-25 19:31:18+00,mv,Intersection,,ELM HILL AVE,SEAVER ST,767333.1,2937399.37,42.30763876,-71.08902773
2015-01-25 20:37:56+00,mv,Street,ADAMS ST,HILLSDALE ST,IRENA RD,775177.04,2926396.65,42.27733793,-71.06023578
2015-01-25 22:20:44+00,mv,Intersection,,RIVERWAY,BROOKLINE AVE,763443,2950168.8,42.34272918,-71.10318925
2015-01-26 11:32:34+00,mv,Street,COMMONWEALTH AVE,FAIRFIELD ST,EXETER ST,769434.43,2953104.49,42.35090705,-71.08107312
2015-01-26 11:42:17+00,mv,Street,WARREN AVE,DARTMOUTH PL,DARTMOUTH ST,771462.48,2950807.71,42.34453738,-71.07359409
2015-01-26 12:53:47+00,ped,Street,MINOT ST,ROSS RD,ADAMS ST,776612.96,2928725.19,42.28369406,-71.0548846
2015-01-26 15:18:55+00,mv,Intersection,,AUSTIN ST,GORDON AVE,757187.5,2918963.41,42.25717717,-71.12683277
2015-01-26 19:50:54+00,ped,Street,BOWDOIN ST,QUINCY ST,HENDRY ST,773835.35,2937703.97,42.30829846,-71.06483021
2015-01-26 19:52:20+00,mv,Intersection,,BRINSLEY ST,WASHINGTON ST,769936.23,2936271.12,42.30450796,-71.07942492
2015-01-26 21:41:01+00,mv,Intersection,,W COTTAGE ST,BLUE HILL AVE,770357.29,2942088.38,42.32046509,-71.07776194
2015-01-26 22:34:30+00,ped,Intersection,,LINCOLN ST,EVERETT ST,754097.45,2955542.41,42.35758866,-71.13767319
2015-01-27 15:15:22+00,ped,Street,POND ST,ROCKWOOD ST,CONRY CRES,756699.76,2938851.05,42.31160008,-71.12817984
2015-01-28 12:04:55+00,mv,Intersection,,WALNUT AVE,WALNUT PARK,765947.72,2939758.52,42.31413059,-71.09410778
2015-01-28 13:50:51+00,mv,Street,DARTMOUTH ST,STUART ST,STUART ST,770791.89,2952358.29,42.34847092,-71.0764941
2015-01-28 16:04:23+00,mv,Street,NORTHAMPTON ST,FELLOWS ST,HARRISON AVE,771062.54,2947025.89,42.33388884,-71.07534214
2015-01-28 17:47:45+00,mv,Intersection,,CROSS ST,SALEM ST,776059.91,2957573.83,42.3628782,-71.05637816
2015-01-28 18:30:16+00,mv,Intersection,,BLUE HILL AVE,DEVON ST,769346.79,2938576.88,42.31084304,-71.08156206
2015-01-29 07:07:23+00,mv,Intersection,,RIVER ST,MASSASOIT ST,763955.26,2921384.54,42.26373697,-71.10179152
2015-01-29 17:43:30+00,ped,Intersection,,MERRIMAC ST,STANIFORD ST,774176.7,2957943.85,42.3639202,-71.06333917
2015-01-29 21:19:12+00,mv,Intersection,,WASHINGTON ST,STIMSON ST,748629.07,2920015.65,42.260163,-71.15843138
2015-01-29 22:27:21+00,mv,Intersection,,BOWDOIN AVE,ELDON ST,770449.6,2935937.37,42.30358517,-71.07753327
2015-01-29 23:00:11+00,ped,Street,HANO ST,PENNIMAN RD,BRAINTREE ST,754159.55,2954849.37,42.3556459,-71.13732545
2015-01-30 00:31:07+00,mv,Intersection,,MAITLAND ST,BEACON ST,763821.99,2951913.99,42.34751319,-71.10175727
2015-01-30 09:16:04+00,ped,Intersection,,TRAVELER ST,ALBANY ST,774560.11,2950701.9,42.34404274,-71.06205809
2015-01-30 14:07:32+00,ped,Street,DUDLEY ST,NORTH AVE,ALBION ST,771799.3,2942649.75,42.32198145,-71.07243252
2015-01-30 17:16:24+00,ped,Street,DECKARD ST,HUMBOLDT AVE,WARREN ST,768340.21,2940369.7,42.31589958,-71.0851874
2015-01-30 18:04:15+00,mv,Intersection,,CAMBRIDGE ST,N HARVARD ST,757137.95,2955656.16,42.3578648,-71.12642217
2015-01-30 18:33:04+00,mv,Street,GROVE ST,SHORT RD,GROVE RD,748960.45,2921001.57,42.26283209,-71.15743983
2015-01-30 19:21:40+00,mv,Intersection,,CATAWBA ST,LAUREL ST,768399.41,2942020.88,42.32030624,-71.08500262
2015-01-30 20:07:33+00,ped,Intersection,,COLUMBIA RD,GENEVA AVE,770262.41,2936833.62,42.30604707,-71.07820885
2015-01-30 20:14:05+00,mv,Other,,,,775816.14,2957414.04,42.36244321,-71.0572832
2015-01-31 00:17:53+00,ped,Intersection,,COMMONWEALTH AVE,BUICK ST,760018.12,2953175.13,42.35102167,-71.11580748
2015-01-31 06:03:54+00,mv,Street,MASSACHUSETTS AVE,CLAPP ST,COLUMBIA RD,774593.74,2942252.24,42.32093443,-71.06191893
2015-01-31 07:12:23+00,mv,Street,COLUMBIA RD,BODWELL ST,QUINCY ST,772415.09,2938783.06,42.31135912,-71.0702062
2015-01-31 07:56:23+00,mv,Intersection,,COMMONWEALTH AVE,LAKE ST,746433.89,2949077.18,42.33993364,-71.16612035
2015-01-31 10:20:28+00,mv,Intersection,,COMMONWEALTH AVE,WASHINGTON ST,752688.82,2950516.9,42.34381478,-71.14296264
2015-01-31 12:07:22+00,mv,Street,DUDLEY ST,BROOK AVE,BURRELL ST,771664.13,2942914.21,42.32270775,-71.07292823
2015-01-31 12:22:28+00,mv,Intersection,,FRANKLIN ST,LINCOLN ST,755377.01,2955326.41,42.35698093,-71.13294254
2015-01-31 14:04:36+00,mv,Street,LEVERETT CIR,DEAD END,DEAD END,772990.32,2958908.77,42.36670154,-71.06790197
2015-01-31 18:04:00+00,mv,Street,TRUMAN PKWY,TRUMAN HWY,NEPONSET VALLEY PKWY,757666.1,2911221.54,42.23592873,-71.12499148
2015-01-31 18:54:26+00,mv,Other,,,,784352.66,2959309.94,42.36751965,-71.02565871
2015-02-01 01:15:51+00,mv,Street,WILLIAM F MCCLELLAN HWY,DEAD END,BOARDMAN ST,787727.55,2968797.12,42.39305264,-71.01196585
2015-02-01 05:48:04+00,mv,Intersection,,PARK ST,DORCHESTER AVE,775029.79,2934156.24,42.29863416,-71.06063601
2015-02-01 10:39:55+00,mv,Other,,,,776855.63,2957627.13,42.36301306,-71.05343291
2015-02-01 14:19:46+00,mv,Street,FORDHAM RD,BRIGHTON AVE,COMMONWEALTH AVE,756745,2953318.31,42.35145463,-71.12791584
2015-02-01 19:33:09+00,mv,Street,MAGNOLIA ST,OLEANDER ST,CHAMBLET ST,772272.07,2940459.49,42.31605002,-71.07103945
2015-02-01 20:51:18+00,mv,Street,HYDE PARK AVE,STELLA RD,CUMMINS HWY,759238.54,2927579.69,42.28080143,-71.11889873
2015-02-01 23:40:19+00,mv,Intersection,,WASHINGTON ST,HARVARD ST,771506.79,2934415.87,42.29939566,-71.07365336
2015-02-02 00:37:20+00,mv,Other,,,,776432.04,2943325.15,42.32377412,-71.05527614
2015-02-02 02:04:45+00,mv,Intersection,,CENTRAL SQ,MERIDIAN PL,780720.32,2961735.58,42.37423027,-71.0390511
2015-02-02 09:20:21+00,mv,Street,FOREST HILLS ST,LOURDES AVE,WILLIAMS ST,763432.08,2936467.78,42.30492405,-71.10297942
2015-02-02 09:30:41+00,mv,Street,BATTERY WHRF,BATTERY ST,DEAD END,777398.68,2958871.48,42.36641786,-71.05139468
2015-02-02 12:22:36+00,ped,Street,TREMONT ST,BEACON ST,BOSWORTH ST,774903.55,2955595.91,42.35756271,-71.06087276
2015-02-02 19:37:51+00,mv,Street,BEALE ST,DORCHESTER AVE,HURON PATH,774185.33,2928507.67,42.28329512,-71.06394625
2015-02-03 08:19:11+00,ped,Street,DORCHESTER AVE,DEWAR ST,HOYT ST,775694.24,2937935.17,42.30899454,-71.05810933
2015-02-03 08:58:12+00,mv,Intersection,,CHELSEA ST,CURTIS ST,785130.57,2965295.43,42.38393194,-71.02265623
2015-02-03 12:58:15+00,ped,Street,NORWOOD ST,TOLMAN ST,CONLEY ST,779108.15,2931457.99,42.2911626,-71.04562843
2015-02-03 15:16:26+00,mv,Other,,,,780967.92,2961475.34,42.37351249,-71.03814002
2015-02-03 22:28:15+00,mv,Street,ADAMS ST,BOWDOIN ST,WINTER ST,774296.66,2937418.43,42.30771858,-71.06317211
2015-02-03 23:38:19+00,mv,Intersection,,COLUMBUS AVE,DIXWELL ST,765081.22,2940015.63,42.31484738,-71.09730694
2015-02-04 06:43:59+00,ped,Intersection,,COLUMBUS AVE,RITCHIE ST,764730.35,2942852.99,42.32263777,-71.09855483
2015-02-04 06:46:05+00,mv,Street,SELDEN ST,MORTON ST,HENRICI ST,768547.92,2926981.75,42.2789324,-71.08452748
2015-02-04 08:31:51+00,mv,Street,BLAKE ST,RIDLON RD,GREENFIELD RD,762982.65,2923161.69,42.26853028,-71.105204
2015-02-04 18:57:02+00,mv,Intersection,,ADAMS ST,BUTLER ST,774141.92,2924909.35,42.27327263,-71.06409254
2015-02-04 19:42:45+00,mv,Intersection,,E COTTAGE ST,NORFOLK AVE,773575.23,2942434.88,42.32137158,-71.06585678
2015-02-04 22:12:20+00,mv,Intersection,,ARLINGTON ST,BOYLSTON ST,772216.04,2953556.66,42.35190898,-71.07067559
2015-02-04 22:32:04+00,ped,Intersection,,ESSEX ST,ATLANTIC AVE,776209.68,2953537.66,42.35180073,-71.05590176
2015-02-05 02:13:50+00,ped,Street,COLUMBUS AVE,CLARENDON ST,DARTMOUTH ST,771032.3,2951520.14,42.34617818,-71.07485451
2015-02-05 06:28:53+00,mv,Street,THEODORE ST,MIDDLETON ST,MORTON ST,767511.59,2928856.43,42.28401459,-71.08836898
2015-02-05 11:10:16+00,mv,Street,MORELAND ST,WARREN ST,CLEVELAND ST,768978.4,2944097.25,42.32587115,-71.08287512
2015-02-05 15:17:33+00,mv,Other,,,,757188.16,2955353.69,42.35703421,-71.12624131
2015-02-05 19:02:41+00,mv,Intersection,,SPRING ST,MORRELL ST,745630.99,2925087.6,42.27411328,-71.16943397
2015-02-05 19:23:58+00,ped,Street,FULLER ST,MILTON AVE,CAPEN ST,770501.25,2927643.66,42.28066514,-71.07742956
2015-02-05 21:09:03+00,ped,Intersection,,WHEATLAND AVE,WASHINGTON ST,771988.48,2932430.86,42.29394206,-71.07190968
2015-02-05 21:22:35+00,mv,Intersection,,TRUMAN PKWY,NEPONSET VALLEY PKWY,757764.72,2910976.83,42.23525431,-71.12483034
2015-02-05 22:56:52+00,mv,Street,TERMINAL RD,TERMINAL A,TERMINAL B,785398.37,2958235.76,42.36534481,-71.02111878
2015-02-05 23:34:36+00,mv,Intersection,,W NINTH ST,DORCHESTER ST,777389.37,2946483.64,42.33242738,-71.05167475
2015-02-06 06:33:20+00,mv,Intersection,,BLUE HILL AVE,AMERICAN LEGION HWY,767885.27,2933934.35,42.29812323,-71.08704846
2015-02-06 06:46:58+00,mv,Intersection,,MALDEN ST,HARRISON AVE,772799.3,2949289.4,42.34019143,-71.0685977
2015-02-06 11:13:53+00,ped,Street,TOPEKA ST,SOUTHAMPTON ST,S BAY AVE,773401.78,2946890.47,42.33370986,-71.06671178
2015-02-06 11:26:57+00,mv,Intersection,,WILLIAM T MORRISSEY BLVD,FREEPORT ST,778125.87,2934912.88,42.30066608,-71.04917713
2015-02-06 12:44:06+00,mv,Street,COMMONWEALTH AVE,EXETER ST,DARTMOUTH ST,769797.52,2953327.04,42.35129912,-71.07962057
2015-02-06 17:06:51+00,mv,Intersection,,MELNEA CASS BLVD,SHAWMUT AVE,769049.34,2946951.06,42.33382615,-71.08251021
2015-02-06 17:25:26+00,mv,Intersection,,HARRISON AVE,DUDLEY ST,768996.06,2945051.04,42.32861314,-71.08274164
2015-02-06 18:38:44+00,mv,Intersection,,MASSACHUSETTS AVE,MELNEA CASS BLVD,771859.87,2946498.89,42.33254716,-71.0721242
2015-02-06 19:45:16+00,mv,Street,ATHELWOLD ST,MERLIN ST,THANE ST,770925.42,2933225.1,42.29628154,-71.07587449
2015-02-06 20:45:26+00,mv,Intersection,,MELNEA CASS BLVD,ALBANY ST,770573.25,2946024.54,42.33126314,-71.07689121
2015-02-06 21:10:48+00,mv,Street,CAMBRIDGE ST,RAMP - SOLDIERS FIELD ROAD WB,DEAD END,769858.32,2964713.68,42.38234383,-71.07914674
2015-02-07 00:43:22+00,mv,Other,,,,776432.04,2943325.15,42.32377412,-71.05527614
2015-02-07 10:31:07+00,mv,Street,WELD ST,MANTHORNE RD,GARNET RD,749696.76,2931894.27,42.29288077,-71.1544483
2015-02-07 10:51:47+00,mv,Street,WILLIAM T MORRISSEY BLVD,NORWOOD ST,TOLMAN ST,779310.56,2931065.86,42.28983469,-71.04512848
2015-02-07 13:12:20+00,ped,Intersection,,MASSACHUSETTS AVE,NEWBURY ST,767503.41,2952151.9,42.34811805,-71.08813477
2015-02-07 13:32:37+00,mv,Street,DORCHESTER AVE,MAYFIELD ST,VICTORIA ST,775998.04,2940557.62,42.31618752,-71.05668934
2015-02-07 18:01:25+00,ped,Street,LEO M BIRMINGHAM PKWY,CENTOLA ST,LOTHROP ST,751709.55,2956548.93,42.36037736,-71.14649037
2015-02-07 18:27:01+00,mv,Street,WILLIAM T MORRISSEY BLVD,BIANCULLI BLVD,MOUNT VERNON ST,778718.56,2940715.88,42.31621877,-71.04810046
2015-02-07 22:44:32+00,mv,Intersection,,BRAINERD RD,HARVARD AVE,756178.25,2952500.11,42.34921597,-71.13002351
2015-02-08 01:27:39+00,mv,Street,ADAMS ST,LEEDSVILLE ST,ROBINSON ST,774953.76,2935883.92,42.30341862,-71.06069053
2015-02-08 17:36:28+00,mv,Street,HILL TOP ST,HALLET-DAVIS ST,WHITRIDGE ST,778283.98,2927679.88,42.28069381,-71.04858831
2015-02-08 19:34:06+00,mv,Intersection,,TOWNSEND ST,HAZELWOOD ST,768361.47,2940735.88,42.31678065,-71.08516601
2015-02-08 22:25:52+00,mv,Street,DEVON ST,NORMANDY ST,LAREDO ST,770317.72,2937937.75,42.30893082,-71.07815827
2015-02-09 06:33:43+00,mv,Intersection,,COLUMBIA RD,OLD HARBOR ST,778554.02,2945663.68,42.3301605,-71.04738362
2015-02-09 08:12:10+00,ped,Street,WHITTIER PL,MARTHA RD,MARTHA RD,773049.01,2958482.9,42.36565817,-71.06737279
2015-02-09 08:36:08+00,ped,Street,PETERBOROUGH ST,JERSEY ST,KILMARNOCK ST,764746.47,2950375.7,42.34341112,-71.09842847
2015-02-09 08:53:30+00,mv,Street,LOVELL ST,FRANKFORT ST,NEPTUNE RD,784363.2,2963314.88,42.37849483,-71.0255481
2015-02-09 10:21:47+00,mv,Street,VINE ST,DECATUR ST,HUNTER ST,776143.05,2962530.91,42.37658891,-71.05585836
2015-02-09 11:51:49+00,mv,Other,,,,774801.79,2945766.38,42.33049612,-71.06125802
2015-02-09 12:12:54+00,ped,Intersection,,BLUE HILL AVE,FAIRWAY ST,766159.48,2923204.8,42.26870338,-71.09361645
2015-02-09 14:20:32+00,mv,Other,,,,778022.88,2935204.24,42.30146708,-71.04955214
2015-02-09 14:40:57+00,mv,Other,,,,777651.18,2964507.04,42.38188012,-71.05035511
2015-02-09 15:34:32+00,mv,Intersection,,WILLIAM F MCCLELLAN HWY,NEPTUNE RD,784489.13,2963783.93,42.37979421,-71.02506154
2015-02-09 20:56:02+00,mv,Intersection,,KNEELAND ST,TYLER ST,774870.42,2953044.16,42.35046559,-71.06086565
2015-02-09 23:11:46+00,mv,Street,NORFOLK ST,NELSON ST,WILLOWWOOD ST,768409.14,2928252.92,42.28266166,-71.08531215
2015-02-10 00:21:35+00,mv,Street,GENEVA AVE,BISHOP JOE L SMITH WAY,COLUMBIA RD,769886.36,2937097.44,42.30689515,-71.0794354
2015-02-10 09:01:30+00,mv,Other,,,,779584.52,2928851.5,42.28401205,-71.04390513
2015-02-10 12:40:41+00,mv,Street,FENWAY NULL,PALACE RD,HIGGINSON CIR,764323.38,2948932.76,42.33952106,-71.0996863
2015-02-10 15:01:58+00,mv,Street,AMERICAN LEGION HWY,MOUNT HOPE ST,CANTERBURY ST,760864.27,2928323.14,42.28323134,-71.11361999
2015-02-10 15:40:55+00,mv,Intersection,,AUSTIN ST,GORDON AVE,757187.5,2918963.41,42.25717717,-71.12683277
2015-02-10 21:27:47+00,mv,Intersection,,CHARLESGATE WEST,COMMONWEALTH AVE,766220.23,2952534.79,42.34918561,-71.09287478
2015-02-11 05:18:59+00,ped,Intersection,,MASSACHUSETTS AVE,MELNEA CASS BLVD,771859.87,2946498.89,42.33254716,-71.0721242
2015-02-11 07:45:31+00,mv,Intersection,,WARREN ST,WYOMING ST,768803.97,2940005.13,42.31476952,-71.08354311
2015-02-11 08:10:20+00,mv,Intersection,,CLARKWOOD ST,BLUE HILL AVE,766460.29,2927654.9,42.28091083,-71.09242652
2015-02-11 10:35:10+00,mv,Intersection,,RIVER ST,HYDE PARK AVE,757925.77,2918478.09,42.25583651,-71.12411357
2015-02-11 15:33:53+00,ped,Intersection,,SHAWMUT AVE,MELNEA CASS BLVD,769049.34,2946951.06,42.33382615,-71.08251021
2015-02-11 15:51:55+00,ped,Intersection,,E BERKELEY ST,WASHINGTON ST,773510.36,2950664.65,42.34395525,-71.06594178
2015-02-11 16:34:49+00,mv,Street,FENWAY NULL,BROOKLINE AVE,HIGGINSON CIR,763576.82,2949518.25,42.34138041,-71.10191579
2015-02-11 17:43:11+00,ped,Street,BOYLSTON ST,GLOUCESTER ST,FAIRFIELD ST,769311.44,2951867.31,42.34878253,-71.08218766
2015-02-11 19:47:54+00,mv,Intersection,,S HUNTINGTON AVE,PERKINS ST,761062.46,2942457.67,42.32159956,-71.11212436
2015-02-11 23:41:11+00,mv,Intersection,,SAINT MARYS ST,MOUNTFORT ST,762433.7,2952298.58,42.34858619,-71.10688625
2015-02-12 00:50:09+00,mv,Intersection,,ADAMS ST,ASHMONT ST,776476.4,2930385.32,42.28826597,-71.05536154
2015-02-12 09:14:17+00,ped,Street,BOLSTER ST,WYMAN ST,MOZART ST,762763.53,2942535.89,42.32198235,-71.1058561
2015-02-12 12:59:22+00,mv,Intersection,,HARVARD ST,MORTON ST,766058.12,2930122.76,42.28768807,-71.09386923
2015-02-12 14:17:08+00,mv,Street,OLD COLONY AVE,MONSIGNOR DENNIS F OCALLAGHAN WAY,COLUMBIA RD,777099.23,2943478.04,42.32418837,-71.05242458
2015-02-12 15:13:45+00,mv,Intersection,,AMERICAN LEGION HWY,MOUNT HOPE ST,760361.83,2928182.11,42.28243529,-71.11495335
2015-02-13 03:45:33+00,mv,Street,WILLIAM T MORRISSEY BLVD,VICTORY RD,POPES HILL ST,777957.56,2933705.87,42.29749911,-71.04933282
2015-02-13 05:21:17+00,mv,Street,CAMBRIDGE ST,RAMP - SOLDIERS FIELD ROAD WB,DEAD END,770894.17,2965190.69,42.38363505,-71.07519703
2015-02-13 07:49:20+00,mv,Other,,,,757188.16,2955353.69,42.35703421,-71.12624131
2015-02-13 08:06:20+00,mv,Intersection,,MORTON ST,EVANS ST,768582.97,2927644.61,42.2808545,-71.08458278
2015-02-13 12:26:08+00,mv,Street,DEDHAM ST,SHAWMUT AVE,IVANHOE ST,771615.89,2949864.61,42.34191075,-71.07277376
2015-02-13 12:43:59+00,mv,Other,,,,775816.14,2957414.04,42.36244321,-71.0572832
2015-02-13 13:40:18+00,ped,Street,RIVER ST,STURBRIDGE ST,CEDAR ST,771339.54,2923985.85,42.2712895,-71.07433271
2015-02-13 14:16:26+00,mv,Intersection,,HUNTINGTON AVE,FORSYTH WAY,766389.91,2948860.72,42.33910162,-71.09231205
2015-02-13 15:22:53+00,ped,Intersection,,E BERKELEY ST,SHAWMUT AVE,773208.86,2950801.65,42.34433539,-71.06705445
2015-02-13 16:32:04+00,mv,Intersection,,HYDE PARK AVE,WALK HILL ST,760016.47,2933138.58,42.29604045,-71.11614716
2015-02-13 19:44:24+00,mv,Intersection,,POWELLTON RD,COLUMBIA RD,769458.69,2936401.73,42.30487281,-71.08118785
2015-02-13 22:11:41+00,mv,Other,,,,774930.61,2958875.72,42.36646664,-71.06053184
2015-02-14 00:19:49+00,mv,Other,,,,774007.12,2949030.14,42.33946316,-71.06413518
2015-02-14 06:13:21+00,mv,Intersection,,NORFOLK AVE,SHIRLEY ST,772677.42,2943770.39,42.32504876,-71.06915162
2015-02-14 09:57:25+00,ped,Intersection,,TOPEKA ST,SOUTHAMPTON ST,772981.55,2946195.14,42.33169814,-71.06798157
2015-02-14 11:10:42+00,mv,Street,FANEUIL ST,OAK SQ,OAK SQ,745867.86,2953215.41,42.35107271,-71.16810526
2015-02-14 12:55:50+00,mv,Street,FULLER ST,DORCHESTER AVE,CLERMONT ST,773602.24,2928759.79,42.28367581,-71.06591909
2015-02-14 20:25:21+00,ped,Street,NORFOLK ST,MIDDLETON ST,MORTON ST,768169.06,2928095.05,42.28225639,-71.08628059
2015-02-15 02:16:30+00,mv,Intersection,,RIVER ST,RECTOR RD,764672.65,2921903.59,42.26515207,-71.09913226
2015-02-15 15:16:28+00,ped,Street,SECOND ST,N ST,ACADIA ST,782998.54,2948269.9,42.33739458,-71.03089974
2015-02-15 17:47:12+00,ped,Intersection,,DIMOCK ST,COLUMBUS AVE,764776.8,2941739.75,42.31958239,-71.09840245
2015-02-16 00:37:48+00,mv,Intersection,,RIVER ST,NEPONSET VALLEY PKWY,754640.93,2914571.12,42.24515451,-71.13630878
2015-02-16 07:13:50+00,mv,Other,,,,774334.18,2960490.57,42.37090622,-71.06270816
2015-02-16 07:31:46+00,mv,Street,HUNTINGTON AVE,RAMP - RT 90 EB TO HUNTINGTON,W NEWTON ST,769296.03,2951562.28,42.34610989,-71.08097023
2015-02-16 09:26:03+00,mv,Other,,,,775515.75,2957857.82,42.36366522,-71.05838615
2015-02-16 10:10:55+00,mv,Street,HAMPDEN ST,ALTHER ST,FARNHAM ST,771134.85,2945856.29,42.33079405,-71.07482127
2015-02-16 12:50:47+00,ped,Intersection,,CORINTH ST,COHASSET ST,756358.95,2929531.61,42.28618705,-71.1297239
2015-02-16 15:09:55+00,mv,Street,WASHINGTON ST,MEDFORD ST,ENDICOTT ST,775495.56,2958751.1,42.36611617,-71.05845143
2015-02-16 16:58:27+00,mv,Intersection,,PARKMAN ST,DORCHESTER AVE,774838.92,2933240.38,42.29612368,-71.06135893
2015-02-16 19:41:53+00,mv,Street,COMMONWEALTH AVE,BUICK ST,ESSEX ST,760560.87,2953088.82,42.35077153,-71.11380249
2015-02-16 22:12:28+00,mv,Street,CENTRAL AVE,LAVAL ST,GREENWOOD AVE,759464.01,2921338.15,42.2636164,-71.11816923
2015-02-16 23:19:43+00,mv,Street,TREMONT ST,BURKE ST,FREDERICK DOUGLASS SQ,768460.66,2948087.51,42.33694344,-71.0846579
2015-02-17 03:58:45+00,mv,Intersection,,PERKINS ST,S HUNTINGTON AVE,761062.46,2942457.67,42.32159956,-71.11212436
2015-02-17 08:07:56+00,mv,Other,,,,767576.45,2952004.34,42.34771217,-71.08786722
2015-02-17 08:23:49+00,mv,Street,HYDE PARK AVE,GRANT PL,RIVER ST,757897.99,2918712.74,42.25644545,-71.12396106
2015-02-17 08:48:48+00,mv,Street,WASHINGTON ST,NASSAU ST,KNEELAND ST,774291.18,2952955.87,42.35031741,-71.06330278
2015-02-17 08:52:36+00,mv,Street,WASHINGTON ST,COWING ST,MAPLEWOOD ST,751606.78,2923753.24,42.27024149,-71.14715973
2015-02-17 10:47:06+00,mv,Intersection,,GROVE ST,CENTRE ST,747719.62,2923132.09,42.26872473,-71.16174532
2015-02-17 11:16:24+00,mv,Intersection,,COLUMBUS AVE,WASHINGTON ST,764813.61,2940364.63,42.31580852,-71.09829029
2015-02-17 11:22:27+00,mv,Street,TRUMAN PKWY,GARFIELD AVE,DANA AVE,758324.87,2916252.26,42.24972004,-71.12266901
2015-02-17 12:22:10+00,mv,Intersection,,WASHINGTON ST,W BOUNDARY RD,750875.32,2922730.95,42.26758904,-71.15009237
2015-02-17 13:28:47+00,ped,Intersection,,STANIFORD ST,CAMBRIDGE ST,774054.05,2956938.41,42.36116298,-71.06381202
2015-02-17 14:18:11+00,mv,Street,DANUBE ST,BROOKFORD ST,DEWEY ST,771059.59,2941053.63,42.31766105,-71.07538206
2015-02-17 15:00:03+00,mv,Intersection,,RIVER ST,RIDGEVIEW AVE,768381.66,2924038.6,42.27096204,-71.08539145
2015-02-17 17:04:13+00,mv,Street,GENEVA AVE,OLNEY ST,EVERTON ST,771448.33,2936325.32,42.30481531,-71.07375837
2015-02-18 02:20:09+00,mv,Street,MAYFIELD ST,BAKERSFIELD ST,PLEASANT ST,775204.07,2940848.7,42.31682168,-71.05992196
2015-02-18 06:40:11+00,mv,Street,CAMBRIDGE ST,RAMP - SOLDIERS FIELD ROAD WB,DEAD END,770894.17,2965190.69,42.38363505,-71.07519703
2015-02-18 14:47:49+00,mv,Street,TRUMAN PKWY,WAKEFIELD AVE,CRANMORE RD,757077.51,2913605.83,42.24251105,-71.12641214
2015-02-18 17:33:18+00,ped,Intersection,,BEACON ST,MASSACHUSETTS AVE,767133.97,2953148.66,42.35085807,-71.08948367
2015-02-18 19:08:51+00,ped,Street,KNEELAND ST,TYLER ST,HUDSON ST,774941.55,2952945.91,42.35035384,-71.06052433
2015-02-18 19:28:41+00,mv,Street,MASSACHUSETTS AVE,BELVIDERE ST,SAINT GERMAIN ST,767710.2,2951346.83,42.34598283,-71.08709823
2015-02-18 20:28:56+00,mv,Intersection,,ELM HILL AVE,WENONAH ST,768587.72,2939207.63,42.31258403,-71.08435701
2015-02-18 21:29:27+00,ped,Street,MONTROSE ST,WARREN ST,ASPEN ST,769339.3,2943293.64,42.32352936,-71.08137641
2015-02-19 06:38:29+00,mv,Intersection,,HARVARD ST,BLUE HILL AVE,767682.09,2932761.6,42.29490783,-71.08782042
2015-02-19 09:44:08+00,mv,Street,LANARK RD,KILSYTH RD,SUTHERLAND RD,751504.94,2949302.59,42.34061318,-71.1473315
2015-02-19 12:45:43+00,mv,Street,WILLIAM T MORRISSEY BLVD,INTERSTATE 93 S,BIANCULLI BLVD,780753.33,2939845.32,42.31219332,-71.04601734
2015-02-19 13:02:25+00,ped,Street,ABBOT ST,HARVARD ST,BLUE HILL AVE,768036.76,2933615.43,42.29737631,-71.08633451
2015-02-19 13:24:43+00,mv,Street,MORTON ST,SELDEN ST,LORNA RD,769168.52,2927356.5,42.2802103,-71.08223921
2015-02-19 14:08:56+00,ped,Street,BEACON ST,CHARLES ST,CHARLES ST,772569.08,2955138,42.35622841,-71.06933624
2015-02-19 15:20:33+00,mv,Street,WASHINGTON ST,ASTICOU RD,UKRAINE WAY,760523,2934732.17,42.30046657,-71.11469418
2015-02-19 16:06:41+00,mv,Intersection,,DEWEY ST,BLUE HILL AVE,770283.85,2940788.63,42.31689952,-71.07805727
2015-02-20 00:13:12+00,mv,Street,RIVER ST,MEADOWBANK AVE,LEAHAVEN RD,769387.06,2924788.02,42.2713336,-71.08152178
2015-02-20 01:56:19+00,mv,Other,,,,785198.39,2965978.14,42.38580425,-71.02239106
2015-02-20 06:15:27+00,mv,Street,MASSPORT HAUL RD,PUMPHOUSE RD,RAMP,780612.89,2951481.6,42.34594474,-71.03981528
2015-02-20 06:48:12+00,mv,Intersection,,GALLIVAN BLVD,ADAMS ST,775526.61,2928101.11,42.2820115,-71.05891534
2015-02-20 07:44:09+00,mv,Other,,,,781194.95,2961718.77,42.37417709,-71.03729496
2015-02-20 08:09:24+00,mv,Street,NEW RUTHERFORD AVE,RUTHERFORD AVE,RAMP - NEW RUTHERFORD AVENUE T,772630.55,2961945.92,42.37507925,-71.06849237
2015-02-20 08:55:29+00,mv,Intersection,,AMERICAN LEGION HWY,MOUNT HOPE ST,760361.83,2928182.11,42.28243529,-71.11495335
2015-02-20 12:26:50+00,mv,Street,WALTER ST,MENDUM ST,WELD ST,756110.41,2932371.5,42.29398181,-71.13060591
2015-02-20 13:33:56+00,mv,Intersection,,COMMONWEALTH AVE,CHARLESGATE,766570.52,2952411.94,42.34884391,-71.09158113
2015-02-21 03:26:02+00,mv,Other,,,,777280.46,2955870.31,42.3581862,-71.05189515
2015-02-21 09:34:05+00,mv,Intersection,,EUSTIS ST,HARRISON AVE,769491.83,2945943.83,42.33105632,-71.08089202
2015-02-21 09:44:04+00,mv,Intersection,,KENDALL ST,LENOX ST,769006.1,2948363.65,42.33770293,-71.08264457
2015-02-21 12:43:58+00,ped,Intersection,,PORTER ST,BENNINGTON ST,780744.02,2962000.27,42.37495623,-71.0389581
2015-02-21 14:02:08+00,mv,Street,SOUTH ST,CENTRE ST,BARDWELL ST,760078.51,2937917.37,42.30915808,-71.11553988
2015-02-21 14:18:11+00,ped,Street,MASSACHUSETTS AVE,NEWMARKET SQ,ALLSTATE RD,773665.54,2944291.83,42.32609961,-71.06627437
2015-02-21 17:37:24+00,mv,Intersection,,ELM HILL AVE,SEAVER ST,767333.1,2937399.37,42.30763876,-71.08902773
2015-02-21 21:10:42+00,mv,Street,GALLIVAN BLVD,CLOVER ST,RAMP - GALLIVAN BOULEVARD TO H,779056.49,2929087.76,42.28439851,-71.04562733
2015-02-21 21:20:36+00,mv,Intersection,,METROPOLITAN AVE,THATCHER ST,759490.02,2922415.84,42.26662296,-71.11827039
2015-02-21 23:03:00+00,ped,Street,WASHINGTON ST,DEVONSHIRE PL,STATE ST,775772.35,2956063.24,42.35876441,-71.05780552
2015-02-22 06:38:25+00,mv,Other,,,,774473.65,2959327.29,42.3677122,-71.06221414
2015-02-22 10:53:38+00,mv,Intersection,,FARADAY ST,WASHINGTON ST,758069.77,2914166.33,42.24400292,-71.12365193
2015-02-22 16:27:34+00,mv,Intersection,,OLNEY ST,GENEVA AVE,771366.54,2936428.37,42.30491999,-71.07413463
2015-02-22 19:08:19+00,mv,Street,CROWN POINT DR,MARGARETTA DR,MARGARETTA DR,751582,2919394.82,42.25823876,-71.147537
2015-02-23 08:25:12+00,mv,Street,WILLIAM T MORRISSEY BLVD,NORWOOD ST,TOLMAN ST,779310.56,2931065.86,42.28983469,-71.04512848
2015-02-23 10:59:23+00,mv,Intersection,,PARK DR,BOYLSTON ST,765823.66,2951207.4,42.3455484,-71.09436515
2015-02-23 16:03:13+00,ped,Street,HANCOCK ST,RILL ST,HOWE ST,774005.28,2939122.82,42.31240243,-71.06418191
2015-02-23 17:00:31+00,mv,Intersection,,MALCOLM X BLVD,DUDLEY ST,768348.87,2945149.56,42.32889214,-71.08513322
2015-02-23 18:04:39+00,mv,Street,NEWTON ST,ALBANY ST,HARRISON AVE,772166.54,2947905.9,42.33651761,-71.07078828
2015-02-23 18:20:29+00,mv,Intersection,,CUMMINS HWY,ITASCA ST,763162.9,2924133.61,42.27129075,-71.10467166
2015-02-23 19:57:55+00,ped,Street,RIVER ST,RIVER STREET PL,CENTRAL AVE,771562.63,2924281.68,42.27143121,-71.0734769
2015-02-24 07:36:11+00,mv,Intersection,,COLUMBIA RD,BABE RUTH PARK DR,778373.73,2945649.11,42.33012315,-71.04805065
2015-02-24 10:16:13+00,ped,Street,SAINT JAMES AVE,ARLINGTON ST,BERKELEY ST,772136.68,2953047.81,42.35083087,-71.07113895
2015-02-24 11:35:52+00,mv,Intersection,,BEACON ST,BERKELEY ST,771098.61,2954613.66,42.35482477,-71.07478996
2015-02-24 11:59:05+00,mv,Intersection,,WALK HILL ST,HYDE PARK AVE,760016.47,2933138.58,42.29604045,-71.11614716
2015-02-24 13:35:15+00,mv,Street,MASSPORT HAUL RD,PUMPHOUSE RD,RAMP,780612.89,2951481.6,42.34594474,-71.03981528
2015-02-24 15:22:42+00,mv,Street,MASSACHUSETTS AVE,GERARD ST,ISLAND ST,772343.02,2946132.88,42.3313623,-71.0707174
2015-02-24 15:53:55+00,ped,Street,DEERING RD,BLUE HILL AVE,WELLINGTON HILL ST,766388.29,2928695.06,42.28388924,-71.09255837
2015-02-24 17:06:37+00,ped,Intersection,,MILTON AVE,NORFOLK ST,770123.62,2929943.33,42.2871416,-71.0788477
2015-02-24 22:36:37+00,mv,Intersection,,GALLIVAN BLVD,GRANITE AVE,776391.68,2928323.61,42.28260973,-71.05571433
2015-02-24 23:23:06+00,mv,Street,WAYNE ST,MAPLE ST,BLUE HILL AVE,768137.37,2937413.22,42.30750742,-71.08617333
2015-02-24 23:24:55+00,mv,Intersection,,QUINCY ST,COLUMBIA RD,772409.62,2938778.65,42.31135492,-71.07023491
2015-02-25 08:22:31+00,mv,Intersection,,HYDE PARK AVE,AMERICAN LEGION HWY,758958.56,2924577.79,42.27256203,-71.12019828
2015-02-25 09:56:54+00,mv,Other,,,,776888.82,2936999.36,42.30640934,-71.05370945
2015-02-25 10:16:02+00,mv,Street,WASHINGTON ST,MEDFORD ST,ENDICOTT ST,775493.74,2958770.71,42.36617,-71.05845794
2015-02-25 11:47:00+00,mv,Intersection,,SOUTHAMPTON ST,FRONTAGE RD,774877.87,2945688.43,42.33028114,-71.06097815
2015-02-25 15:06:37+00,mv,Other,,,,775027.82,2952196.07,42.34813618,-71.06029955
2015-02-25 17:15:37+00,mv,Street,BOARDMAN ST,SARATOGA ST,ASHLEY ST,788609.08,2967044.15,42.38856701,-71.00990115
2015-02-25 23:02:47+00,mv,Other,,,,778878.69,2933450.42,42.29664207,-71.04642313
2015-02-26 08:52:24+00,mv,Street,MASSPORT HAUL RD,PUMPHOUSE RD,RAMP,780612.89,2951481.6,42.34594474,-71.03981528
2015-02-26 09:59:26+00,bike,Intersection,,CARVER ST,BOYLSTON ST,773241.48,2953788.74,42.35253159,-71.06687768
2015-02-26 12:52:51+00,ped,Intersection,,DUDLEY ST,LANGDON ST,771392.17,2943298.39,42.32377129,-71.07391302
2015-02-26 16:50:27+00,mv,Street,GLEN RD,ROCKY NOOK TER,GLENSIDE AVE,764105.7,2937787.95,42.30849397,-71.10105836
2015-02-26 17:17:15+00,ped,Intersection,,DUDLEY ST,ADAMS ST,770435.54,2944743.39,42.32774949,-71.07742397
2015-02-26 18:59:40+00,bike,Intersection,,BERKELEY ST,TREMONT ST,772456.86,2951145.9,42.34529046,-71.06982967
2015-02-27 00:46:07+00,mv,Intersection,,WILLIAM F MCCLELLAN HWY,WORDSWORTH ST,785975.09,2965835.83,42.38540178,-71.01951914
2015-02-27 05:59:35+00,mv,Street,TERMINAL RD,AIRPORT RD,RAMP - AIRPORT ROAD TO RT 90 E,786030.06,2960194.24,42.36939371,-71.01986185
2015-02-27 08:22:53+00,mv,Street,MASSACHUSETTS AVE,MAGAZINE ST,PROCTOR ST,773210.41,2944795.5,42.32765789,-71.06759156
2015-02-27 09:27:21+00,ped,Intersection,,PEMBROKE ST,TREMONT ST,770813.98,2949820.4,42.34167583,-71.07593114
2015-02-27 10:25:40+00,ped,Street,BROOKLINE ST,WARREN AVE,CANTON PL,770637.69,2950311.63,42.34310436,-71.07642686
2015-02-27 13:10:55+00,mv,Street,RIVER ST,CEDAR ST,IDAHO ST,771188.22,2924215.09,42.27139225,-71.07502287
2015-02-27 16:16:05+00,mv,Intersection,,PARK DR,BOYLSTON ST,765823.66,2951207.4,42.3455484,-71.09436515
2015-02-27 16:41:38+00,ped,Intersection,,ADAMS ST,ASHMONT ST,776476.4,2930385.32,42.28826597,-71.05536154
2015-02-27 18:30:06+00,mv,Intersection,,BLUE HILL AVE,WALES ST,767990.1,2934137.87,42.29868031,-71.08665733
2015-02-27 18:58:22+00,ped,Street,QUINCY ST,CLARKSON ST,COLEMAN ST,773582.59,2937939.56,42.30893861,-71.06608024
2015-02-27 19:54:46+00,ped,Intersection,,VFW PKWY,SPRING ST,744896.71,2923871.58,42.2707842,-71.17216434
2015-02-27 21:42:14+00,mv,Intersection,,ALFORD ST,DEXTER ST,773021.29,2968983.52,42.39422928,-71.06740718
2015-02-27 22:20:31+00,mv,Street,TALBOT AVE,LITHGOW ST,BRENT ST,772638.88,2930908.66,42.28991397,-71.06946951
2015-02-28 02:28:05+00,mv,Intersection,,OLD COLONY AVE,DORCHESTER ST,777000.29,2946182.63,42.331607,-71.05311951
2015-03-01 01:34:42+00,mv,Street,FANEUIL ST,SANDERSON PL,GOODENOUGH ST,749739.89,2954819.61,42.35563846,-71.15380821
2015-03-01 03:52:27+00,mv,Other,,,,778498.6,2936061.05,42.30381131,-71.04777686
2015-03-01 07:42:30+00,mv,Street,BENNINGTON ST,SARATOGA ST,TRIDENT ST,788891.36,2966093.46,42.38605129,-71.00871209
2015-03-01 11:25:43+00,mv,Street,COURT ST,BOSTON PL,COURT SQ,775534.58,2956265.97,42.35894171,-71.05846125
2015-03-01 11:37:34+00,mv,Street,WOODROW AVE,MOUNTAIN AVE,DON ST,768230.87,2929855.51,42.28677306,-71.0857808
2015-03-01 13:12:26+00,mv,Intersection,,HUNTINGTON AVE,FORSYTH WAY,766389.91,2948860.72,42.33910162,-71.09231205
2015-03-01 15:27:37+00,mv,Street,TERMINAL RD,TERMINAL B,TERMINAL B,786262.26,2957561.86,42.36478,-71.019229
2015-03-01 16:43:40+00,mv,Street,CENTRE ST,WALTER ST,VFW PKWY,755933.6,2933905.95,42.29774742,-71.13085531
2015-03-02 09:39:18+00,mv,Intersection,,NORTHERN AVE,SLEEPER ST,778381,2954301.78,42.35386619,-71.04785414
2015-03-02 11:58:09+00,ped,Street,AMORY ST,W WALNUT PARK,ATHERTON ST,764085.29,2941476.98,42.31886739,-71.10095794
2015-03-02 16:00:13+00,ped,Street,MASSACHUSETTS AVE,NEWMARKET SQ,ALLSTATE RD,773665.54,2944291.83,42.32609961,-71.06627437
2015-03-02 16:39:24+00,ped,Intersection,,YAWKEY WAY,BROOKLINE AVE,764586.34,2951665.65,42.34682191,-71.09893411
2015-03-02 16:52:00+00,ped,Intersection,,QUINCY ST,BLUE HILL AVE,770080.04,2939954.88,42.31461443,-71.07882606
2015-03-02 17:06:46+00,mv,Intersection,,GALLIVAN BLVD,HALLET ST,778820.43,2928839.11,42.28398923,-71.04672904
2015-03-02 21:14:22+00,mv,Intersection,,PARK DR,BEACON ST,762915.06,2951616.77,42.34670918,-71.10511726
2015-03-02 21:41:50+00,mv,Intersection,,ATLANTIC AVE,SUMMER ST,776338.91,2953824.94,42.35258719,-71.05541814
2015-03-02 21:51:15+00,mv,Intersection,,FOREST ST,MOUNT PLEASANT AVE,769904.6,2944776.39,42.32784724,-71.0793868
2015-03-03 06:49:09+00,mv,Intersection,,BELGRADE AVE,ROBERT ST,755997.7,2929737.86,42.28675731,-71.13105564
2015-03-03 07:22:10+00,ped,Street,MALCOLM X BLVD,GAY ST,KING ST,766791.32,2946247.35,42.33120542,-71.0909714
2015-03-03 10:02:48+00,mv,Intersection,,HYDE PARK AVE,CUMMINS HWY,759279.1,2927283.6,42.27998305,-71.11896929
2015-03-03 10:19:09+00,ped,Street,COMMONWEALTH AVE,ALCORN ST,BRIGHTON AVE,757983.56,2953776.3,42.35213099,-71.12341778
2015-03-03 10:34:58+00,mv,Intersection,,CAMBRIDGE ST,HARVARD AVE,755429.26,2954801.16,42.35553901,-71.13275759
2015-03-03 13:50:13+00,ped,Street,ALLSTATE RD,SOUTHAMPTON ST,MASSACHUSETTS AVE,774256.08,2945344.5,42.32912063,-71.06258117
2015-03-03 15:28:55+00,mv,Other,,,,774079.25,2946874.92,42.33354816,-71.06390915
2015-03-03 19:40:57+00,mv,Intersection,,WASHINGTON ST,DAKOTA ST,771678.23,2934087.37,42.29849188,-71.07302573
2015-03-04 08:47:39+00,mv,Street,COLUMBIA RD,RAMP - RT 93 SB TO COLUMBIA RO,BUTTONWOOD ST,776499.26,2942481.79,42.32144363,-71.0550411
2015-03-04 15:10:31+00,mv,Street,MASSACHUSETTS AVE,ALLSTATE RD,CLAPP ST,774014.34,2943437.31,42.32398413,-71.0644983
2015-03-04 16:12:38+00,ped,Street,CUMMINS HWY,SHELDON ST,SHERWOOD ST,757661.73,2928611.31,42.2838379,-71.12445027
2015-03-04 16:55:25+00,mv,Street,BLUE HILL AVE,ELLINGTON ST,COLUMBIA RD,768380.53,2935737.02,42.3030634,-71.08518618
2015-03-04 17:57:00+00,mv,Other,,,,774079.25,2946874.92,42.33354816,-71.06390915
2015-03-04 18:08:07+00,ped,Intersection,,MASSACHUSETTS AVE,WESTLAND AVE,768152.91,2950426.4,42.34337459,-71.08576313
2015-03-04 18:36:44+00,ped,Street,WASHINGTON ST,MALCOLM X BLVD,GUILD ROW,768217.11,2944911.3,42.32857146,-71.0858648
2015-03-04 18:44:35+00,ped,Intersection,,AMERICAN LEGION HWY,CUMMINS HWY,759869.24,2926956.71,42.27907879,-71.116794
2015-03-04 19:42:08+00,mv,Intersection,,COMMONWEALTH AVE,BRIGHTON AVE,757642.35,2953548.85,42.3520762,-71.12459031
2015-03-04 23:16:54+00,mv,Intersection,,MELNEA CASS BLVD,HAMPDEN ST,771134.72,2946002.19,42.33119415,-71.07481518
2015-03-05 12:26:08+00,mv,Intersection,,PARK DR,BOYLSTON ST,765823.66,2951207.4,42.3455484,-71.09436515
2015-03-05 18:07:53+00,ped,Street,WARREN ST,ZEIGLER ST,TABER ST,768692.19,2945448.97,42.32963619,-71.08328311
2015-03-06 04:30:21+00,mv,Intersection,,SUMMER ST,ATLANTIC AVE,776338.91,2953824.94,42.35258719,-71.05541814
2015-03-06 06:20:09+00,mv,Street,DORCHESTER AVE,MELVINSIDE TER,BAY ST,775854.74,2938925.84,42.31171073,-71.05749732
2015-03-06 07:50:49+00,mv,Intersection,,FREEPORT ST,WILLIAM T MORRISSEY BLVD,778125.87,2934912.88,42.30066608,-71.04917713
2015-03-06 08:18:24+00,mv,Street,CUMMINS HWY,SEMINOLE ST,LIVERMORE ST,762298.1,2924874.96,42.27327126,-71.10812403
2015-03-06 08:29:03+00,mv,Intersection,,RIVER ST,BLAKE ST,762682.4,2921266.84,42.26343021,-71.10649584
2015-03-06 08:53:49+00,mv,Other,,,,780967.92,2961475.34,42.37351249,-71.03814002
2015-03-06 09:05:21+00,mv,Intersection,,CUMMINS HWY,HYDE PARK AVE,759279.1,2927283.6,42.27998305,-71.11896929
2015-03-06 09:37:48+00,ped,Intersection,,TREMONT ST,HAMILTON PL,774610.36,2955309.16,42.35668447,-71.06178466
2015-03-06 10:21:35+00,ped,Intersection,,MASSACHUSETTS AVE,HARRISON AVE,771061.25,2947397.22,42.33502316,-71.07506119
2015-03-06 13:57:30+00,mv,Street,GRANITE AVE,HILL TOP ST,DEAD END,776871.89,2926814.57,42.27845937,-71.05398029
2015-03-06 14:40:13+00,mv,Street,WASHINGTON ST,KITTREDGE ST,ATHERTON AVE,756377.24,2929032.07,42.284895,-71.12979892
2015-03-06 20:51:34+00,mv,Street,BLUE HILL AVE,GLENWAY ST,ELLINGTON ST,768354.68,2935400.41,42.30217307,-71.08546665
2015-03-06 21:17:52+00,ped,Intersection,,ESSEX ST,COMMONWEALTH AVE,761360.09,2953041.46,42.35063818,-71.11084527
2015-03-07 00:03:35+00,ped,Street,MAPLE ST,SUNNYBANK RD,MIDVALE RD,749041.62,2930980.2,42.29033829,-71.15653066
2015-03-07 06:31:21+00,mv,Intersection,,CONGRESS ST,B ST,779555.74,2952636.03,42.34927817,-71.04354112
2015-03-07 11:43:05+00,ped,Street,WASHINGTON ST,COMMONWEALTH AVE,EUSTON RD,752442.09,2950578.33,42.3441754,-71.14368394
2015-03-07 18:42:20+00,mv,Street,WILLIAM T MORRISSEY BLVD,TENEAN ST,TENEAN ST,778927.03,2932449.97,42.293977,-71.047287
2015-03-07 21:20:14+00,ped,Street,RIVER ST,SUNCREST RD,MONPONSET ST,764362.15,2921665.68,42.2644952,-71.10027522
2015-03-07 23:18:27+00,mv,Intersection,,BLUE HILL AVE,CALLENDER ST,767201.28,2930770.36,42.28945011,-71.08963295
2015-03-08 04:03:26+00,mv,Other,,,,777401.32,2954616.87,42.354745,-71.05147238
2015-03-08 04:26:04+00,mv,Intersection,,MELNEA CASS BLVD,HARRISON AVE,769926.56,2946332.93,42.33211815,-71.0792772
2015-03-08 16:33:01+00,ped,Intersection,,WORDSWORTH ST,SARATOGA ST,787070.57,2965483.43,42.38441779,-71.01547176
2015-03-08 17:54:35+00,mv,Street,SARATOGA ST,SAINT EDWARD RD,SHAWSHEEN RD,790694.77,2965642.23,42.38493665,-71.00195965
2015-03-08 19:36:20+00,mv,Intersection,,CENTRE ST,ARBORWAY,758591.96,2937775.94,42.30878311,-71.12133631
2015-03-08 22:47:28+00,mv,Intersection,,FANEUIL ST,BROOKS ST,747208.43,2953619.41,42.35238935,-71.16318918
2015-03-09 07:55:58+00,mv,Street,MASSPORT HAUL RD,PUMPHOUSE RD,RAMP,780612.89,2951481.6,42.34594474,-71.03981528
2015-03-09 10:29:08+00,mv,Intersection,,COMMONWEALTH AVE,CHARLESGATE EAST,766570.39,2952549.63,42.34922174,-71.09157917
2015-03-09 10:39:05+00,mv,Street,ARBORWAY NULL,CENTRE ST,CUSTER ST,759050.3,2937629.65,42.30827634,-71.1198829
2015-03-09 14:53:45+00,mv,Intersection,,MORTON ST,HARVARD ST,766058.12,2930122.76,42.28768807,-71.09386923
2015-03-09 15:01:53+00,mv,Intersection,,TRUMAN PKWY,DANA AVE,758382.58,2916386.83,42.25009238,-71.12246038
2015-03-09 19:47:07+00,mv,Street,FERNBORO ST,LAWRENCE AVE,INTERVALE ST,770466.14,2938554.36,42.31084549,-71.0776176
2015-03-09 20:19:56+00,bike,Intersection,,N WASHINGTON ST,CAUSEWAY ST,775468.37,2959023.02,42.36686322,-71.05853915
2015-03-10 02:08:52+00,mv,Intersection,,TALBOT AVE,COLONIAL AVE,771269.17,2931352.36,42.29099247,-71.07458817
2015-03-10 06:57:55+00,mv,Intersection,,GALLIVAN BLVD,GRANITE AVE,776391.68,2928323.61,42.28260973,-71.05571433
2015-03-10 07:13:26+00,mv,Intersection,,ADAMS ST,ARCADIA ST,775156.24,2935443.62,42.30216501,-71.06014407
2015-03-10 09:09:49+00,ped,Street,HOSMER ST,BLUE HILL AVE,NORFOLK ST,767154.62,2927459.7,42.28049924,-71.0897521
2015-03-10 10:04:56+00,mv,Street,WILLIAM J DAY BLVD,WILLIAM T MORRISSEY BLVD,BABE RUTH PARK DR,778131.55,2942877.8,42.32266629,-71.04933841
2015-03-10 13:41:57+00,mv,Intersection,,DORIS ST,DORCHESTER AVE,775961.2,2939576.69,42.31349492,-71.05708918
2015-03-10 15:37:02+00,mv,Street,VFW PKWY,MANTHORNE RD,BRUCEWOOD ST,748966.16,2932934.98,42.29559518,-71.1569932
2015-03-10 19:18:46+00,mv,Intersection,,AMERICAN LEGION HWY,BLUE HILL AVE,767885.27,2933934.35,42.29812323,-71.08704846
2015-03-10 22:36:41+00,mv,Intersection,,COLUMBIA RD,STANWOOD ST,770680.98,2937225.63,42.30711707,-71.07665431
2015-03-10 23:32:20+00,mv,Street,HAMPDEN ST,NORFOLK AVE,DUBOIS ST,771082.17,2945170.55,42.32891303,-71.07502901
2015-03-11 02:21:09+00,mv,Other,,,,777280.46,2955870.31,42.3581862,-71.05189515
2015-03-11 02:45:10+00,mv,Street,WASHINGTON ST,FOSTER ST,OAKLAND ST,748690.7,2952352.31,42.34902369,-71.15773633
2015-03-11 06:37:42+00,ped,Intersection,,BIOSQUARE DR,E CONCORD ST,772264.91,2947145.59,42.33431614,-71.0706142
2015-03-11 07:36:09+00,mv,Other,,,,776432.04,2943325.15,42.32377412,-71.05527614
2015-03-11 08:37:24+00,mv,Intersection,,DRY DOCK AVE,SUMMER ST,780825.55,2950817.44,42.34426918,-71.03888011
2015-03-11 08:57:58+00,ped,Intersection,,COLUMBIA RD,ANNABEL ST,774195.74,2941437.81,42.31862688,-71.06358121
2015-03-11 09:14:01+00,mv,Street,FESSENDEN ST,BLUE HILL AVE,NORFOLK ST,766724.98,2926761.59,42.27831203,-71.09165468
2015-03-11 09:36:30+00,ped,Intersection,,BERKELEY ST,SAINT JAMES AVE,771687.11,2953020.41,42.35044479,-71.07264227
2015-03-11 12:18:32+00,bike,Intersection,,COMMONWEALTH AVE,SILBER WAY,764133.28,2952529.66,42.34919861,-71.10059508
2015-03-11 15:02:08+00,ped,Street,DEER ST,MELVINSIDE TER,DUNN ST,775563.27,2938857.14,42.31150638,-71.05839092
2015-03-11 20:16:32+00,mv,Intersection,,TALBOT AVE,WELLES AVE,773317.05,2930666.11,42.28908108,-71.06703233
2015-03-12 07:41:49+00,mv,Other,,,,758635.21,2955798.12,42.35823621,-71.12088028
2015-03-12 08:49:27+00,ped,Intersection,,ALBANY ST,MASSACHUSETTS AVE,771522.63,2946890.41,42.33362614,-71.07336417
2015-03-12 09:07:56+00,mv,Intersection,,AMORY ST,COLUMBUS AVE,764757.09,2942523.66,42.32173373,-71.09846169
2015-03-12 11:08:53+00,mv,Street,SUMMER ST,WEST SIDE DR,WORLD TRADE CENTER AVE,779006.96,2951488.97,42.347344,-71.04443
2015-03-12 12:50:28+00,ped,Street,NEWBURY ST,HEREFORD ST,MASSACHUSETTS AVE,767919.63,2952200.61,42.3484565,-71.08670178
2015-03-12 14:08:23+00,mv,Intersection,,CENTRE ST,RHODA ST,751595.19,2929894.07,42.28723706,-71.14732337
2015-03-12 15:31:06+00,mv,Intersection,,COMMONWEALTH AVE,ESSEX ST,761360.09,2953041.46,42.35063818,-71.11084527
2015-03-12 18:53:38+00,ped,Intersection,,HERALD ST,WASHINGTON ST,773877.61,2951643.4,42.34663583,-71.06456486
2015-03-12 21:01:58+00,ped,Street,ALBANY ST,E STOUGHTON ST,E CONCORD ST,772230.11,2947346.22,42.33517682,-71.07114359
2015-03-12 23:00:01+00,mv,Street,HANCOCK ST,TRULL ST,ROWELL ST,773895.12,2939242.15,42.31270073,-71.06459524
2015-03-13 07:41:00+00,ped,Street,LONGWOOD AVE,PALACE RD,AVENUE LOUIS PASTEUR,763648.44,2947895.26,42.33668518,-71.10233069
2015-03-13 08:47:18+00,ped,Intersection,,HEATH ST,SCHILLER ST,762921.65,2944113.14,42.32611884,-71.10522135
2015-03-13 15:43:30+00,ped,Street,PRINCETON ST,MERIDIAN ST,MARION ST,780900.91,2962668.03,42.37665725,-71.03827934
2015-03-13 16:12:16+00,mv,Other,,,,775525.58,2944729.32,42.32764014,-71.05860117
2015-03-13 17:00:03+00,mv,Intersection,,ALDRICH ST,CORNELL ST,753053.13,2928653.61,42.28381648,-71.14195455
2015-03-13 17:14:59+00,ped,Intersection,,DORCHESTER AVE,HOYT ST,775641.55,2937612.88,42.30811068,-71.05830858
2015-03-13 19:58:04+00,mv,Other,,,,774727.13,2945869.87,42.33078115,-71.06153216
2015-03-14 00:53:41+00,mv,Intersection,,WASHINGTON ST,NEW WASHINGTON ST,761247.26,2935443.19,42.30234915,-71.11155915
2015-03-14 02:25:46+00,ped,Intersection,,CONGRESS ST,STATE ST,775920.42,2956175.88,42.35904419,-71.05692115
2015-03-14 02:56:21+00,ped,Intersection,,LAGRANGE ST,WASHINGTON ST,774341.24,2953418.91,42.35150137,-71.06281617
2015-03-14 05:45:54+00,mv,Intersection,,RIVER ST,HYDE PARK AVE,757925.77,2918478.09,42.25583651,-71.12411357
2015-03-14 09:23:47+00,mv,Street,CAMBRIDGE ST,N HARVARD ST,LINCOLN ST,756692.72,2955483.56,42.35736807,-71.12801289
2015-03-14 10:54:29+00,mv,Other,,,,771845.36,2956502.6,42.35999781,-71.07199221
2015-03-14 11:19:22+00,mv,Intersection,,MILTON AVE,EDSON ST,770607.1,2928960.11,42.28443702,-71.07707894
2015-03-14 11:37:21+00,ped,Intersection,,TREMONT ST,PARKER ST,765085.59,2946192.89,42.331798,-71.09718292
2015-03-14 12:34:12+00,ped,Intersection,,WASHINGTON ST,COLUMBUS AVE,764813.61,2940364.63,42.31580852,-71.09829029
2015-03-14 18:12:14+00,mv,Street,MASSACHUSETTS AVE,GERARD ST,ISLAND ST,772343.02,2946132.88,42.3313623,-71.0707174
2015-03-14 20:34:37+00,mv,Intersection,,TRUMAN PKWY,FAIRMOUNT AVE,759496.08,2917309.33,42.2526102,-71.11833242
2015-03-15 00:36:03+00,mv,Intersection,,GALLIVAN BLVD,GRANITE AVE,776391.68,2928323.61,42.28260973,-71.05571433
2015-03-15 02:05:56+00,ped,Intersection,,TREMONT ST,BOYLSTON ST,773874.3,2953738.16,42.35238395,-71.06453754
2015-03-15 02:32:18+00,mv,Intersection,,HARRISON AVE,DUDLEY ST,768996.06,2945051.04,42.32861314,-71.08274164
2015-03-15 02:53:23+00,mv,Street,MILTON AVE,MORA ST,FULLER ST,770919.54,2927769.64,42.28119385,-71.07579594
2015-03-15 03:31:05+00,mv,Street,TERMINAL RD,TERMINAL A,TERMINAL B,785398.37,2958235.76,42.36534481,-71.02111878
2015-03-15 05:07:04+00,mv,Street,ADAMS ST,WESTGLOW ST,ASHMONT ST,776380.42,2930494.18,42.28861015,-71.05550855
2015-03-15 17:04:29+00,mv,Street,WALDEMAR AVE,CRESTWAY RD,WILLIAM F MCCLELLAN HWY,788764.19,2968727.63,42.3934636,-71.00912902
2015-03-15 17:26:32+00,mv,Intersection,,HYDE PARK AVE,CANTERBURY ST,759211.97,2926802.26,42.27866305,-71.11922529
2015-03-15 18:17:44+00,mv,Street,FLAHERTY WAY,JOYCE HAYES WAY,D ST,777079.64,2948343.79,42.33764867,-71.05264921
2015-03-15 18:29:36+00,mv,Intersection,,MORTON ST,HARVARD ST,766058.12,2930122.76,42.28768807,-71.09386923
2015-03-15 20:16:26+00,mv,Street,ADAMS ST,GLENROSE RD,LONSDALE ST,775944.32,2931604.87,42.29161891,-71.05731526
2015-03-16 03:33:23+00,mv,Intersection,,HERALD ST,HARRISON AVE,774238.24,2951544.15,42.34635843,-71.06323272
2015-03-16 06:33:49+00,mv,Intersection,,BELVIDERE ST,HUNTINGTON AVE,769216.85,2951183.15,42.34543689,-71.08181396
2015-03-16 07:17:24+00,mv,Intersection,,CEDAR ST,COLUMBUS AVE,765144.07,2944867.37,42.32815996,-71.09698981
2015-03-16 09:18:38+00,ped,Street,WOODROW AVE,DON ST,WILLOWWOOD ST,768123.4,2929698.29,42.28665506,-71.08631429
2015-03-16 09:38:16+00,ped,Street,DRACUT ST,DORCHESTER AVE,BRUCE ST,774605.36,2929974.81,42.2873044,-71.06234209
2015-03-16 10:01:16+00,mv,Street,KNEELAND ST,KNAPP ST,HARRISON AVE,774658.78,2953118.3,42.35065621,-71.06165436
2015-03-16 13:20:15+00,ped,Street,BENNINGTON ST,PORTER ST,LONDON ST,781235.93,2962177.86,42.37551281,-71.03718598
2015-03-16 17:28:32+00,mv,Intersection,,CENTRE ST,VFW PKWY,755512,2933401.04,42.29681507,-71.13279233
2015-03-16 23:07:52+00,ped,Street,MASSACHUSETTS AVE,SAINT BOTOLPH ST,COLUMBUS AVE,768777.75,2949744.89,42.34159738,-71.08333416
2015-03-17 07:59:57+00,mv,Intersection,,COLUMBUS AVE,CENTRE ST,764808.18,2943686.17,42.32492305,-71.09825252
2015-03-17 08:23:16+00,mv,Other,,,,778385.4,2934690.86,42.30005308,-71.04822214
2015-03-17 09:56:13+00,ped,Street,BROOKS ST,CHELSEA ST,MORRIS ST,782551.08,2962319.88,42.37589237,-71.03216826
2015-03-17 16:03:35+00,mv,Street,WARREN ST,DALE ST,EDGEWOOD ST,769276.81,2942141.64,42.32062446,-71.08176575
2015-03-17 19:38:56+00,mv,Street,HYDE PARK AVE,WEBSTER ST,CLAY ST,758140.86,2919382.61,42.25834335,-71.12351142
2015-03-17 19:40:07+00,mv,Street,GROVE ST,ALTAIR RD,BIRCH RD,748748.82,2921678.98,42.26467615,-71.15818987
2015-03-17 20:56:35+00,mv,Intersection,,SPICE ST,CAMBRIDGE ST,770891.98,2965093.68,42.38358492,-71.07536138
2015-03-17 21:29:53+00,ped,Intersection,,LAKE ST,UNDINE RD,746510.62,2949787.9,42.34188307,-71.16582625
2015-03-18 00:21:53+00,mv,Street,PARK DR,MEDFIELD ST,BEACON ST,762949.9,2951273.28,42.34584523,-71.10470482
2015-03-18 03:24:10+00,ped,Street,WARREN ST,ELM HILL PARK,INTERVALE ST,768961.55,2939246.65,42.31260116,-71.08321028
2015-03-18 08:04:20+00,bike,Street,CUMMINS HWY,WASHINGTON ST,SUMNER AVE,756845.03,2929586.55,42.28632124,-71.12793999
2015-03-18 12:47:23+00,mv,Intersection,,RIVERWAY,AUTUMN ST,761503.4,2948856.15,42.33915175,-71.11038583
2015-03-18 12:54:54+00,ped,Street,GARFIELD AVE,NEWACRE RD,BOW ST,759252.75,2914470.81,42.24481654,-71.11929204
2015-03-18 14:57:16+00,mv,Street,BLUE HILL AVE,MORELAND ST,STAFFORD ST,770576.41,2942914.5,42.32268202,-71.07681052
2015-03-18 15:05:04+00,ped,Street,TREMONT ST,JEFFERSON ST,CHURCH ST,773291.39,2952405.9,42.34872818,-71.06671068
2015-03-18 20:05:17+00,mv,Intersection,,HILBURN ST,WHITFORD ST,757451.62,2926701.02,42.27840662,-71.12573172
2015-03-19 10:23:32+00,mv,Street,HIGHLAND ST,MARCELLA ST,CENTRE ST,765138.77,2943107.34,42.32386497,-71.0965463
2015-03-19 10:31:13+00,mv,Street,MASSACHUSETTS AVE,GERARD ST,ISLAND ST,772343.02,2946132.88,42.3313623,-71.0707174
2015-03-19 16:15:21+00,mv,Intersection,,CUMMINS HWY,WOOD AVE,761932.72,2925231.51,42.27431902,-71.10919826
2015-03-19 17:09:52+00,ped,Intersection,,HARRISON AVE,NORTHAMPTON ST,770879.73,2947192.89,42.33446496,-71.07573629
2015-03-19 17:30:50+00,mv,Street,TERRACE ST,ALLEGHANY ST,CEDAR ST,764920.29,2945047.13,42.32873409,-71.09805204
2015-03-20 08:17:19+00,mv,Intersection,,MELNEA CASS BLVD,SHAWMUT AVE,769049.34,2946951.06,42.33382615,-71.08251021
2015-03-20 08:35:42+00,mv,Intersection,,GREEN ST,WASHINGTON ST,763127.52,2938040.13,42.30945159,-71.10456417
2015-03-20 10:28:38+00,mv,Intersection,,COLUMBUS AVE,MASSACHUSETTS AVE,769244.78,2949443.97,42.34066415,-71.08174219
2015-03-20 12:15:21+00,mv,Intersection,,FRONTAGE RD,GENERAL CASIMIR PULASKI SKWY,773824.67,2947537.61,42.33537017,-71.06483817
2015-03-20 15:11:30+00,mv,Intersection,,ENNEKING PKWY,GORDON AVE,756673.08,2919377.84,42.25832056,-71.12872634
2015-03-20 15:40:03+00,mv,Intersection,,BLUE HILL AVE,MORELAND ST,770647.98,2942975.14,42.32289445,-71.07667081
2015-03-20 15:52:27+00,ped,Street,DUDLEY ST,ADAMS ST,MULBERRY PL,770507.51,2944743.79,42.32764122,-71.07730866
2015-03-20 20:44:00+00,mv,Intersection,,CHELSEA ST,PUTNAM ST,783021.82,2962762.93,42.37701488,-71.03051294
2015-03-20 22:01:32+00,mv,Street,HAMPDEN ST,KEMBLE ST,NORFOLK AVE,771039.29,2945502.47,42.32981156,-71.07493397
2015-03-20 23:56:42+00,mv,Intersection,,CAMBRIDGE ST,SPICE ST,770891.98,2965093.68,42.38358492,-71.07536138
2015-03-21 00:22:12+00,mv,Intersection,,COLUMBIA RD,CEYLON ST,771608.67,2938153.63,42.30965087,-71.07320764
2015-03-21 01:39:22+00,ped,Street,DARTMOUTH ST,COLUMBUS AVE,STUART ST,770983.31,2951380.01,42.34594967,-71.07528885
2015-03-21 11:44:24+00,ped,Street,CLARKWOOD ST,NORFOLK ST,BLUE HILL AVE,766957.95,2927276.54,42.27999256,-71.09048679
2015-03-21 16:12:47+00,mv,Intersection,,AMBROSE ST,DEARBORN ST,770092.17,2945609.64,42.33013117,-71.07867794
2015-03-21 16:42:43+00,mv,Intersection,,GALLIVAN BLVD,DORCHESTER AVE,773631.17,2927331.35,42.27992591,-71.06593414
2015-03-21 17:08:17+00,bike,Street,COMMONWEALTH AVE,SILBER WAY,GRANBY ST,763757.41,2952777.02,42.3495667,-71.10205141
2015-03-21 19:04:17+00,mv,Street,SEVENTH ST,DALESSIO CT,C ST,776321.76,2948363.93,42.33746228,-71.05575131
2015-03-21 23:34:10+00,mv,Street,BROOKLINE AVE,PILGRIM RD,SHORT ST,763210.6,2950059.49,42.34226176,-71.10375282
2015-03-21 23:36:14+00,ped,Street,TREMONT ST,MILFORD ST,HANSON ST,772038.49,2950934.14,42.34431447,-71.07098133
2015-03-21 23:40:22+00,mv,Intersection,,COMMONWEALTH AVE,SUTHERLAND RD,751658.44,2949630.65,42.34139465,-71.14678757
2015-03-22 01:54:09+00,mv,Intersection,,MILTON AVE,ROCKWELL ST,770843.04,2928409.61,42.2829232,-71.07621713
2015-03-22 05:47:15+00,mv,Intersection,,RUTHERFORD AVE,WASHINGTON ST,773944.27,2961184.91,42.37281697,-71.06413791
2015-03-22 09:58:05+00,mv,Intersection,,COMMONWEALTH AVE,GLOUCESTER ST,768425.6,2952964.16,42.35033464,-71.08470876
2015-03-22 12:56:28+00,mv,Street,HYDE PARK AVE,GRANT PL,RIVER ST,757897.99,2918712.74,42.25644545,-71.12396106
2015-03-22 19:48:01+00,ped,Street,HARRISON AVE,NORTHAMPTON ST,E LENOX ST,770624.54,2947055.89,42.33394105,-71.07649591
2015-03-22 22:03:18+00,mv,Intersection,,QUINCY ST,BLUE HILL AVE,770080.04,2939954.88,42.31461443,-71.07882606
2015-03-23 04:40:31+00,mv,Intersection,,CAMBRIDGE ST,SOLDIERS FIELD RD,759503.82,2956796.27,42.36096452,-71.11765003
2015-03-23 06:32:00+00,mv,Intersection,,CUMMINS HWY,WOODHAVEN ST,764894.03,2923769.35,42.270269,-71.09828193
2015-03-23 07:26:30+00,mv,Intersection,,ROCKLAND ST,WALNUT AVE,768434.54,2942812.38,42.32247768,-71.08485847
2015-03-23 08:50:42+00,mv,Intersection,,FRANCIS PARKMAN DR,JAMAICAWAY,758390.27,2939525.37,42.3135861,-71.12205329
2015-03-23 12:59:22+00,ped,Intersection,,EXETER ST,BOYLSTON ST,769836.98,2952675.66,42.34952401,-71.07949284
2015-03-23 15:38:35+00,mv,Street,SOUTHBOURNE RD,HYDE PARK AVE,WACHUSETT ST,759605.75,2931000.53,42.28981949,-71.11774576
2015-03-23 16:00:36+00,mv,Intersection,,HAZLETON ST,HARVARD ST,764554.96,2928219.21,42.28248411,-71.09945748
2015-03-23 17:18:22+00,mv,Street,NORTH ST,FLEET ST,LEWIS ST,777256.77,2957935.46,42.36385147,-71.05193802
2015-03-23 17:25:10+00,mv,Intersection,,BROOKLINE AVE,LANSDOWNE ST,764690.9,2951799.15,42.34718689,-71.09854501
2015-03-23 18:29:40+00,ped,Street,TREMONT ST,WINTER ST,TEMPLE PL,774505.92,2955110,42.35621313,-71.06230712
2015-03-23 18:45:33+00,mv,Street,HYDE PARK AVE,GRANT PL,RIVER ST,757897.99,2918712.74,42.25644545,-71.12396106
2015-03-23 19:46:19+00,ped,Street,LEVERETT CIR,DEAD END,DEAD END,772990.32,2958908.77,42.36670154,-71.06790197
2015-03-24 08:14:40+00,mv,Other,,,,757188.16,2955353.69,42.35703421,-71.12624131
2015-03-24 08:46:01+00,mv,Intersection,,L ST,MARINE RD,781840,2945867.64,42.33067169,-71.03522745
2015-03-24 14:25:27+00,mv,Other,,,,761211.31,2953097.5,42.35079382,-71.11139471
2015-03-24 17:22:15+00,ped,Intersection,,KNEELAND ST,WASHINGTON ST,774291.24,2953190.66,42.35087575,-71.06300546
2015-03-24 17:23:17+00,ped,Intersection,,HAMILTON ST,BOWDOIN ST,773292.36,2936926.37,42.30625992,-71.06700613
2015-03-24 18:22:51+00,mv,Intersection,,AMERICAN LEGION HWY,CANTERBURY ST,765864.47,2932054.11,42.29299034,-71.09455097
2015-03-24 18:34:24+00,ped,Intersection,,DORCHESTER AVE,SAINT MARKS RD,774456.99,2931416.61,42.29112454,-71.06280517
2015-03-24 19:58:31+00,ped,Intersection,,TALBOT AVE,LITHGOW ST,772611.61,2930984.61,42.28996486,-71.06963353
2015-03-24 20:19:50+00,mv,Intersection,,HYDE PARK AVE,ELDRIDGE RD,759575.64,2931824.91,42.29244108,-71.11779831
2015-03-25 06:25:33+00,mv,Other,,,,778724.59,2927152.7,42.27936301,-71.04711631
2015-03-25 09:24:12+00,ped,Street,MORTON ST,WOODGATE ST,PINE RIDGE RD,770353.84,2926389.04,42.27753626,-71.07793509
2015-03-25 09:29:42+00,mv,Street,WASHINGTON ST,ARBORWAY,TOWER ST,760795.21,2934601.85,42.30011681,-71.11342981
2015-03-25 10:22:12+00,mv,Intersection,,HANOVER ST,CROSS ST,776220.33,2957461.69,42.36256819,-71.05578676
2015-03-25 14:09:56+00,mv,Street,TURTLE POND PKWY,SMITH FIELD RD,HALLWOOD RD,754041.3,2918340.85,42.25556844,-71.13825252
2015-03-25 14:26:38+00,ped,Street,WASHINGTON ST,BROMFIELD ST,SUMMER ST,775087.74,2954890.64,42.35568128,-71.06027355
2015-03-25 16:10:20+00,bike,Intersection,,SAINT ROSE ST,ARBORWAY,759257.04,2936090.66,42.30415048,-71.1189054
2015-03-25 16:39:07+00,ped,Street,DORCHESTER AVE,CHRISTOPHER ST,GIBSON ST,774994.48,2933755.89,42.29756269,-71.06094554
2015-03-25 20:36:57+00,mv,Street,RIVER ST,DUXBURY RD,MEADOWBANK AVE,769587.6,2924129.76,42.27136455,-71.08095214
2015-03-25 21:08:48+00,ped,Street,CENTRE ST,COLUMBUS AVE,RITCHIE ST,764596.28,2943023.08,42.32268767,-71.09913557
2015-03-25 21:16:52+00,mv,Street,WOOLSON ST,WILDWOOD ST,LESTON ST,766941.39,2927906.91,42.28172949,-71.09053132
2015-03-26 05:50:40+00,ped,Intersection,,W FOURTH ST,DORCHESTER AVE,775917.06,2949803.95,42.34155952,-71.05705601
2015-03-26 08:30:18+00,mv,Street,ADAMS ST,ELMER RD,PIERCE AVE,776634.87,2929956.16,42.28713965,-71.05457598
2015-03-26 08:37:09+00,mv,Intersection,,WASHINGTON ST,BALL ST,769574.75,2946815.81,42.33344794,-71.08056951
2015-03-26 09:31:44+00,mv,Intersection,,COLUMBIA RD,STOUGHTON ST,773808.55,2940843.38,42.31700117,-71.06502405
2015-03-26 10:04:58+00,ped,Street,SPRING ST,SPRINGVALE AVE,MARSHALL ST,746940.68,2926193.55,42.277122,-71.16457168
2015-03-26 13:00:54+00,ped,Intersection,,MELNEA CASS BLVD,HARRISON AVE,769926.56,2946332.93,42.33211815,-71.0792772
2015-03-26 13:24:12+00,ped,Intersection,,LINCOLN ST,SUMMER ST,775728.76,2954146.52,42.35347832,-71.0576692
2015-03-26 14:49:42+00,mv,Intersection,,HYDE PARK AVE,MILTON ST,755789.26,2912426.82,42.23925684,-71.1321019
2015-03-26 14:50:48+00,mv,Street,WARREN ST,WAUMBECK ST,ELM HILL AVE,768808.17,2939397.71,42.31309952,-71.0835506
2015-03-26 16:55:33+00,mv,Intersection,,HARVARD ST,VESTA RD,768078.66,2932913.62,42.29531972,-71.08635193
2015-03-26 17:54:45+00,mv,Street,COLUMBUS AVE,CLEAVES ST,DIXWELL ST,765168.29,2940059.31,42.31484193,-71.09714501
2015-03-26 18:55:50+00,mv,Street,GEORGETOWNE PL,GEORGETOWNE DR,DEAD END,752478.21,2918304.7,42.25541728,-71.14423254
2015-03-26 19:25:47+00,mv,Intersection,,DARTMOUTH ST,HUNTINGTON AVE,770540.1,2952597.16,42.34929907,-71.07689323
2015-03-26 21:56:37+00,mv,Street,HYDE PARK AVE,WESTMINSTER ST,ARLINGTON ST,758687.68,2921214.43,42.26335727,-71.1214933
2015-03-26 21:59:02+00,ped,Intersection,,BEDFORD ST,KINGSTON ST,775274.18,2954094.91,42.35334315,-71.05935192
2015-03-26 22:26:34+00,ped,Intersection,,SUMMER ST,ATLANTIC AVE,776338.91,2953824.94,42.35258719,-71.05541814
2015-03-27 07:23:30+00,ped,Intersection,,BOSTON ST,CLAPP ST,774874.55,2942806.64,42.32237345,-71.06104527
2015-03-27 07:27:12+00,mv,Intersection,,BLUE HILL AVE,TALBOT AVE,767682.09,2932761.6,42.29490783,-71.08782042
2015-03-27 09:02:51+00,mv,Intersection,,PARK ST,WASHINGTON ST,771931.92,2933003.12,42.29551315,-71.07210812
2015-03-27 10:29:58+00,bike,Intersection,,N HARVARD ST,EMPIRE ST,757046.14,2955869.16,42.35845038,-71.1267584
2015-03-27 12:35:00+00,mv,Intersection,,MASSACHUSETTS AVE,TREMONT ST,769651.43,2948943.06,42.33928416,-71.0802472
2015-03-27 14:17:48+00,mv,Street,WASHINGTON ST,BROOKLEY RD,BURNETT ST,761869.42,2936300.71,42.30469108,-71.10923839
2015-03-27 14:37:48+00,bike,Street,SUMMER ST,WORLD TRADE CENTER AVE,D ST,779682.68,2951527.91,42.34653592,-71.04281747
2015-03-27 19:28:34+00,bike,Street,CAMBRIDGE ST,WILTON ST,THOR TER,755078.85,2954653.95,42.35501534,-71.13395949
2015-03-27 23:06:16+00,mv,Street,ETHEL ST,AUGUSTUS AVE,MALVERNA RD,756122.79,2926552.89,42.27815621,-71.13048178
2015-03-27 23:15:29+00,ped,Other,,,,771408.09,2952115.74,42.34796618,-71.07369119
2015-03-28 05:23:51+00,mv,Intersection,,BROOKLINE AVE,LONGWOOD AVE,762351.02,2948775.9,42.33892088,-71.10725211
2015-03-28 06:14:20+00,mv,Intersection,,LONGWOOD AVE,BINNEY ST,762654.77,2948539.4,42.33826807,-71.10613267
2015-03-28 09:41:44+00,mv,Intersection,,DANA AVE,HYDE PARK AVE,757858.14,2917801.34,42.25398027,-71.12437439
2015-03-28 10:37:51+00,mv,Intersection,,PARKMAN ST,NEPONSET AVE,776176.24,2933696.62,42.29735665,-71.0564072
2015-03-28 11:45:19+00,mv,Street,TOPLIFF ST,GENEVA AVE,RIDGEWOOD ST,773085.25,2935196.55,42.30154198,-71.06765038
2015-03-28 16:29:21+00,mv,Intersection,,MORTON ST,COURTLAND RD,766154.9,2929688.1,42.28649407,-71.09351922
2015-03-28 17:22:26+00,mv,Street,GALLIVAN BLVD,HALLET ST,RAMP - RT 93 SB TO GALLIVAN BO,778940.74,2928859.4,42.28403248,-71.04627639
2015-03-28 20:16:09+00,mv,Intersection,,W CANTON ST,TREMONT ST,771180.81,2950087.41,42.3424035,-71.07456937
2015-03-28 21:21:11+00,ped,Street,DUDLEY ST,BELDEN ST,RAMSEY ST,773657.18,2940933.7,42.31723798,-71.06559394
2015-03-28 22:12:56+00,mv,Street,NORWELL ST,CARMEN ST,VASSAR ST,770104.94,2934824.4,42.30053587,-71.07883292
2015-03-28 23:42:27+00,mv,Street,BROOKFORD ST,JUDSON ST,DROMEY ST,770984.79,2941410.39,42.31842744,-71.07548747
2015-03-29 02:04:13+00,mv,Intersection,,COLUMBUS AVE,DIMOCK ST,764811.9,2941734.52,42.31956758,-71.09827276
2015-03-29 03:09:15+00,mv,Street,CHARLES ST,CAMBRIDGE ST,FRUIT ST,772283.74,2957251.43,42.36209478,-71.07079151
2015-03-29 10:31:35+00,mv,Other,,,,772494.8,2958342.5,42.36503756,-71.06955499
2015-03-29 17:07:53+00,mv,Intersection,,MORTON ST,HARVARD ST,766058.12,2930122.76,42.28768807,-71.09386923
2015-03-29 17:40:11+00,mv,Street,MORTON ST,BLUE HILL AVE,LUCERNE ST,767172.33,2928840.94,42.28394536,-71.08984398
2015-03-29 18:07:24+00,mv,Street,GLENDOWER RD,POPLAR ST,KITTREDGE ST,755428.96,2926096.88,42.27676156,-71.13322835
2015-03-29 20:11:01+00,mv,Street,SCHROEDER PLZ,TREMONT ST,DEAD END,766798.53,2947055.89,42.33359836,-71.09140072
2015-03-30 01:16:58+00,mv,Intersection,,COLUMBIA RD,MERCER ST,777772.23,2945698.41,42.33026715,-71.05027413
2015-03-30 05:30:07+00,mv,Street,HYDE PARK AVE,CANTERBURY ST,CUMMINS HWY,759382.32,2926895.22,42.27896408,-71.1190596
2015-03-30 07:02:10+00,mv,Intersection,,NEPONSET VALLEY PKWY,TRUMAN PKWY,757764.72,2910976.83,42.23525431,-71.12483034
2015-03-30 08:28:49+00,ped,Intersection,,E BROADWAY,K ST,781240.25,2947666.15,42.3356158,-71.03740936
2015-03-30 09:17:59+00,ped,Intersection,,CORNWALL ST,MARMION ST,763327.09,2938951.13,42.31194888,-71.10381073
2015-03-30 10:44:52+00,mv,Street,WARREN ST,TOWNSEND ST,SAVIN ST,769160.27,2941013.84,42.31753193,-71.08220499
2015-03-30 13:28:52+00,mv,Street,SEAVER ST,ELM HILL AVE,HUMBOLDT AVE,767355.42,2937627.58,42.30791248,-71.08939342
2015-03-30 13:33:46+00,mv,Street,BRIGHTON AVE,HARVARD AVE,ALLSTON ST,755208.44,2954186.94,42.35325733,-71.13371803
2015-03-30 14:21:34+00,bike,Intersection,,COLUMBIA RD,CEYLON ST,771608.67,2938153.63,42.30965087,-71.07320764
2015-03-30 15:50:46+00,mv,Intersection,,WILLIAM T MORRISSEY BLVD,FREEPORT ST,778125.87,2934912.88,42.30066608,-71.04917713
2015-03-30 16:28:00+00,ped,Street,MOUNT VERNON ST,HARBOR POINT BLVD,SOUTH POINT DR,779629.38,2941250.96,42.31822784,-71.0433723
2015-03-31 01:14:40+00,mv,Intersection,,BREMEN ST,RAMP - RT 1A SB/ RT 90 WB TO H,782567.23,2961198.26,42.37272827,-71.03222709
2015-03-31 06:14:22+00,mv,Other,,,,775525.58,2944729.32,42.32764014,-71.05860117
2015-03-31 07:17:16+00,ped,Street,DUDLEY ST,WARREN ST,HARRISON AVE,768912.9,2944985.15,42.32862366,-71.08301579
2015-03-31 08:00:44+00,bike,Intersection,,WASHINGTON ST,MARTIN LUTHER KING JR BLVD,766517.22,2942510.64,42.32167508,-71.09195352
2015-03-31 19:25:20+00,mv,Street,WEBSTER ST,COTTAGE ST,ORLEANS ST,781106.9,2959061.27,42.36697887,-71.03760022
2015-03-31 20:56:46+00,mv,Street,BLUE HILL AVE,MORTON ST,DEERING RD,766583.53,2928675.86,42.28367414,-71.09175568
2015-03-31 21:35:48+00,bike,Intersection,,GENERAL WILLIAM H DEVINE WAY,OLD COLONY AVE,777155.62,2945097.64,42.32862752,-71.05256611
2015-04-01 02:46:18+00,mv,Other,,,,777341.2,2955834.18,42.35808619,-71.05167113
2015-04-01 08:15:04+00,ped,Street,JOSLIN PL,BROOKLINE AVE,PILGRIM RD,762079.8,2948626.03,42.33834711,-71.10843449
2015-04-01 08:48:20+00,mv,Intersection,,NEPONSET AVE,PHILBRICK ST,759562.14,2929631.36,42.286422,-71.11788452
2015-04-01 16:27:07+00,ped,Street,LAMARTINE ST,CENTRE ST,ROYS ST,764290.66,2942819.72,42.32260201,-71.10061803
2015-04-01 17:47:56+00,mv,Intersection,,MORTON ST,AMERICAN LEGION HWY,765498.46,2931684.21,42.29198008,-71.09591022
2015-04-02 01:37:12+00,mv,Other,,,,771746.71,2956909.68,42.36111621,-71.07234966
2015-04-02 09:03:00+00,mv,Intersection,,TREMONT ST,CAMDEN ST,769176.6,2948626.15,42.33842094,-71.0820092
2015-04-02 09:15:30+00,ped,Intersection,,HARRISON AVE,HERALD ST,774238.24,2951544.15,42.34635843,-71.06323272
2015-04-02 14:23:22+00,mv,Intersection,,SAVIN HILL AVE,RAMP - FREEPORT STREET TO RT 9,777475.81,2935885.75,42.30334509,-71.05156113
2015-04-02 15:20:58+00,mv,Intersection,,FOREST HILLS AVE,MORTON ST,763118.63,2934699.96,42.30028609,-71.10465427
2015-04-02 16:29:23+00,mv,Intersection,,TOLMAN ST,WILLIAM T MORRISSEY BLVD,779101.53,2931029.64,42.28999606,-71.04564713
2015-04-02 16:51:07+00,mv,Intersection,,DUDLEY ST,ADAMS ST,770435.54,2944743.39,42.32774949,-71.07742397
2015-04-02 17:32:58+00,ped,Intersection,,PALACE RD,LONGWOOD AVE,764070.98,2947777.85,42.33616028,-71.1009078
2015-04-02 17:53:36+00,mv,Other,,,,775017.14,2945369.64,42.32940441,-71.06046918
2015-04-02 18:26:32+00,mv,Street,TRUMAN PKWY,WAKEFIELD AVE,CRANMORE RD,757087.22,2913452.47,42.24208992,-71.12638334
2015-04-02 20:14:16+00,mv,Street,DORCHESTER AVE,HANCOCK ST,FREEPORT ST,775771.82,2937519.82,42.30791126,-71.05835821
2015-04-03 09:57:49+00,mv,Other,,,,768193.54,2951964.33,42.34759418,-71.0855852
2015-04-03 10:49:10+00,mv,Other,,,,766147.42,2953095.14,42.35072418,-71.09313423
2015-04-03 12:39:41+00,mv,Street,LAGRANGE ST,FERNWOOD RD,LANDSEER ST,749480.99,2926707.3,42.27861815,-71.15501439
2015-04-03 14:31:53+00,mv,Street,JOHNSTON RD,HARVARD ST,BLUE HILL AVE,766208.5,2930079.01,42.28771401,-71.09326144
2015-04-03 16:20:07+00,ped,Intersection,,HAMILTON ST,BOWDOIN ST,773292.36,2936926.37,42.30625992,-71.06700613
2015-04-03 19:05:28+00,mv,Street,GREENFIELD RD,ROCKINGHAM RD,BLAKE ST,763420,2923404.24,42.26916918,-71.10393773
2015-04-03 21:37:37+00,mv,Intersection,,GALLIVAN BLVD,ADAMS ST,775526.61,2928101.11,42.2820115,-71.05891534
2015-04-03 21:42:19+00,mv,Street,BLUE HILL AVE,ARBUTUS ST,CALLENDER ST,767229.16,2930640.23,42.28913019,-71.08973934
2015-04-04 00:06:03+00,ped,Intersection,,PRENTISS ST,TREMONT ST,766377.05,2946618.9,42.33295016,-71.09239923
2015-04-04 01:45:26+00,mv,Street,HARRISON AVE,WILLIAM E MULLINS WAY,HERALD ST,774233.41,2951405.91,42.34597908,-71.06325283
2015-04-04 06:13:34+00,mv,Intersection,,CAUSEWAY ST,LOMASNEY WAY,774433.78,2958301.22,42.36489722,-71.06238116
2015-04-04 08:55:40+00,mv,Intersection,,DEERING RD,HARVARD ST,765400.66,2929439.36,42.28582134,-71.09631095
2015-04-04 10:43:06+00,mv,Street,AMERICAN LEGION HWY,CANTERBURY ST,CURLEY ST,761895.61,2929432.05,42.28599623,-71.10943193
2015-04-04 11:45:30+00,bike,Intersection,,CENTRE ST,MYRTLE ST,760543.71,2939408.62,42.31323927,-71.11409353
2015-04-04 12:00:55+00,mv,Street,FAIRMOUNT ST,MILTON AVE,NEVADA ST,771340.53,2927624.15,42.28058576,-71.07432795
2015-04-04 17:07:24+00,ped,Intersection,,COLUMBUS AVE,MASSACHUSETTS AVE,769244.78,2949443.97,42.34066415,-71.08174219
2015-04-04 20:07:09+00,mv,Intersection,,BLUE HILL AVE,SEAVER ST,768353.38,2936581.58,42.30538115,-71.08527061
2015-04-04 20:53:00+00,bike,Intersection,,W NEWTON ST,TREMONT ST,770647.92,2949700.15,42.34134812,-71.07654758
2015-04-04 21:59:59+00,bike,Intersection,,ALBANY ST,MASSACHUSETTS AVE,771522.63,2946890.41,42.33362614,-71.07336417
2015-04-04 22:26:57+00,ped,Street,DORCHESTER AVE,DEXTER ST,TRANSIT ST,775879.34,2945652,42.33016641,-71.05695779
2015-04-05 02:22:26+00,mv,Other,,,,772866.71,2958793.15,42.366269,-71.0681704
2015-04-05 12:31:37+00,bike,Intersection,,JOHN F. FITZGERALD SURFACE RD,STATE ST,777129.87,2956361.41,42.35953596,-71.05244277
2015-04-05 20:21:42+00,mv,Intersection,,FRANKLIN HILL AVE,AMERICAN LEGION HWY,766495.41,2933117.62,42.29590043,-71.09220023
2015-04-05 21:20:23+00,mv,Intersection,,DORCHESTER AVE,ALGER ST,775949.18,2946631.64,42.33285415,-71.05699815
2015-04-05 21:27:17+00,mv,Street,BLUE HILL AVE,COLUMBIA RD,SEAVER ST,768596.72,2936406,42.30492159,-71.0846502
2015-04-06 07:32:54+00,mv,Street,TRUMAN PKWY,WAKEFIELD AVE,CRANMORE RD,757077.51,2913605.83,42.24251105,-71.12641214
2015-04-06 08:34:31+00,ped,Intersection,,NORMANDY ST,WASHINGTON ST,769187.16,2937151.62,42.3069342,-71.08217803
2015-04-06 09:58:16+00,ped,Intersection,,WARREN ST,DUDLEY ST,768657.52,2945071.98,42.32867513,-71.08399321
2015-04-06 13:29:03+00,mv,Intersection,,WOODBINE ST,BLUE HILL AVE,770342.91,2941293.38,42.31828377,-71.07782966
2015-04-06 15:45:28+00,mv,Intersection,,ALBANY ST,WAREHAM ST,773372.98,2948675.65,42.3384993,-71.06648734
2015-04-06 16:07:32+00,ped,Street,AMERICAN LEGION HWY,MOUNT HOPE ST,CANTERBURY ST,760864.27,2928323.14,42.28323134,-71.11361999
2015-04-07 06:57:36+00,mv,Street,HYDE PARK AVE,HADWIN WAY,STELLA RD,759325.49,2927575.33,42.28078291,-71.11879933
2015-04-07 06:59:09+00,ped,Street,WASHINGTON ST,COBDEN ST,BRAGDON ST,765190.98,2940981.42,42.31740326,-71.09670805
2015-04-07 16:05:09+00,mv,Other,,,,777433.19,2955455.66,42.35704619,-71.05133815
2015-04-07 17:39:35+00,mv,Intersection,,LAMARTINE ST,CERINA RD,762242.08,2939284.88,42.31287847,-71.10781645
2015-04-07 20:02:04+00,ped,Intersection,,MASSACHUSETTS AVE,NEWBURY ST,767503.41,2952151.9,42.34811805,-71.08813477
2015-04-07 22:21:55+00,bike,Street,COMMONWEALTH AVE,BRIGHTON AVE,NAPLES RD,757787.52,2953445.91,42.35200174,-71.12400825
2015-04-08 05:47:02+00,ped,Street,MONUMENT AVE,WARREN ST,MONUMENT SQ,774672.52,2962013.44,42.37512935,-71.06155753
2015-04-08 07:03:04+00,mv,Intersection,,GALLIVAN BLVD,MORTON ST,769781.12,2926933.06,42.27888586,-71.08016821
2015-04-08 08:21:05+00,ped,Street,KINGSDALE ST,WARNER ST,BERNARD ST,769785.49,2932882.18,42.29519663,-71.08003872
2015-04-08 10:00:19+00,mv,Street,HUNTINGTON AVE,LONGWOOD AVE,FRANCIS ST,763025.63,2947093.14,42.33428478,-71.10474617
2015-04-08 10:48:33+00,ped,Intersection,,KEMBLE ST,GERARD ST,771739.29,2945053.64,42.328583,-71.07259692
2015-04-08 11:58:08+00,mv,Intersection,,TREMONT ST,PARK ST,774548.42,2955260.16,42.35655088,-71.06201475
2015-04-08 13:24:32+00,mv,Intersection,,N HARVARD ST,WESTERN AVE,756222.84,2957596.41,42.36319984,-71.12977673
2015-04-08 15:37:15+00,ped,Street,MALCOLM X BLVD,ROXBURY ST,GAY ST,767144.61,2946097.1,42.33102958,-71.08974228
2015-04-08 16:41:44+00,mv,Intersection,,CUMMINS HWY,FAIRWAY ST,765674.99,2923073.46,42.26834929,-71.09540874
2015-04-08 19:02:54+00,ped,Intersection,,WINTER ST,TREMONT ST,774481.37,2955155.66,42.35626508,-71.0622648
2015-04-08 19:36:35+00,mv,Intersection,,CANTERBURY ST,CUMMINS HWY,759920.09,2926927.48,42.27899795,-71.11660659
2015-04-08 19:40:54+00,mv,Intersection,,SUMMER ST,E FIRST ST,781754.31,2948596.65,42.33816145,-71.03548938
2015-04-08 21:40:19+00,ped,Street,BROOKLINE AVE,FULLERTON ST,PARK DR,763971.95,2950877.7,42.34466361,-71.10121347
2015-04-08 21:57:29+00,mv,Other,,,,761405.45,2953707.33,42.35246478,-71.11066622
2015-04-09 05:47:18+00,mv,Intersection,,TREMONT ST,SAINT ALPHONSUS ST,763965.78,2946616.64,42.33297523,-71.10131695
2015-04-09 06:02:24+00,mv,Intersection,,RUTHERFORD AVE,CHELSEA ST,774791.26,2960355.64,42.37052953,-71.06101929
2015-04-09 07:55:25+00,mv,Other,,,,780542.27,2929137.98,42.28478406,-71.0403601
2015-04-09 09:15:31+00,bike,Intersection,,WASHINGTON ST,EGREMONT RD,753081.13,2950215.4,42.34298294,-71.14151619
2015-04-09 09:35:53+00,mv,Intersection,,SOLDIERS FIELD RD,WESTERN AVE,759394.76,2957971.82,42.3641916,-71.11803407
2015-04-09 10:36:42+00,mv,Intersection,,NORWELL ST,PARK ST,770316.29,2932604.37,42.29444104,-71.07808701
2015-04-09 12:21:00+00,mv,Other,,,,777099.68,2938852.52,42.31149147,-71.05289404
2015-04-09 12:23:39+00,mv,Intersection,,NORFOLK AVE,SHIRLEY ST,772677.42,2943770.39,42.32504876,-71.06915162
2015-04-09 13:54:18+00,mv,Street,WILLIAM F MCCLELLAN HWY,WALDEMAR AVE,DEAD END,791204.23,2969432.97,42.39545913,-71.0098403
2015-04-09 14:38:13+00,mv,Intersection,,SARATOGA ST,SAINT EDWARD RD,790447.71,2965832.93,42.3853235,-71.00296435
2015-04-09 16:03:25+00,mv,Intersection,,CLARENDON ST,COLUMBUS AVE,771465.7,2951840.88,42.34721117,-71.07348317
2015-04-09 16:17:50+00,ped,Street,ROCKLAND ST,ROCKLAND AVE,WALNUT AVE,768584.39,2942677.1,42.32219743,-71.08422911
2015-04-09 16:20:59+00,mv,Intersection,,CAMBRIDGE ST,N GROVE ST,772733.98,2956943.27,42.36119474,-71.06869615
2015-04-09 16:36:50+00,ped,Intersection,,SUMMER ST,PURCHASE ST,776091.53,2953938.08,42.35290118,-71.05633114
2015-04-09 19:26:28+00,mv,Intersection,,MELNEA CASS BLVD,ALBANY ST,770573.25,2946024.54,42.33126314,-71.07689121
2015-04-09 19:48:23+00,ped,Intersection,,SOUTHERN AVE,NEW ENGLAND AVE,770267.98,2930778.86,42.28943239,-71.07829892
2015-04-09 20:02:22+00,ped,Intersection,,MELNEA CASS BLVD,MASSACHUSETTS AVE,771859.87,2946498.89,42.33254716,-71.0721242
2015-04-10 06:18:23+00,mv,Street,PARKER ST,HUNTINGTON AVE,RUGGLES ST,766186.71,2948260.1,42.33753157,-71.09329556
2015-04-10 10:59:18+00,mv,Intersection,,TOPEKA ST,SOUTHAMPTON ST,772981.55,2946195.14,42.33169814,-71.06798157
2015-04-10 11:24:46+00,mv,Street,SOUTHAMPTON ST,CUMMINGS ST,MOORE ST,773545.4,2946046.49,42.33126632,-71.06590495
2015-04-10 14:26:34+00,mv,Intersection,,NORTH ST,CROSS ST,776454.63,2957290.91,42.36209622,-71.05492313
2015-04-10 15:36:18+00,mv,Street,COLUMBIA RD,ELDER ST,EASTMAN ST,774381.96,2941886.73,42.31975379,-71.0626914
2015-04-10 16:26:10+00,mv,Intersection,,DIX ST,DORCHESTER AVE,774755.8,2932849.62,42.29505259,-71.06167358
2015-04-10 17:53:02+00,mv,Street,WASHINGTON ST,THORNDIKE ST,BALL ST,769841.38,2946772.74,42.33382034,-71.08031395
2015-04-10 18:13:45+00,mv,Intersection,,TALBOT AVE,LITHGOW ST,772611.61,2930984.61,42.28996486,-71.06963353
2015-04-10 21:00:56+00,ped,Intersection,,BLUE HILL AVE,WAYNE ST,768585.41,2937101.37,42.30680438,-71.08440349
2015-04-10 21:19:35+00,ped,Intersection,,COLUMBIA RD,HOLDEN ST,774195.74,2941437.81,42.31862688,-71.06358121
2015-04-10 21:38:45+00,mv,Intersection,,WASHINGTON ST,ROCKVALE CIR,762685.71,2937428.37,42.30777849,-71.10620797
2015-04-11 11:50:08+00,ped,Intersection,,WASHINGTON ST,WORCESTER SQ,770902.9,2948284.54,42.33746016,-71.07563051
2015-04-11 15:18:23+00,bike,Street,BOYLSTON ST,HADASSAH WAY,CHARLES ST,772953.49,2953676.73,42.35242734,-71.0680148
2015-04-11 16:20:11+00,mv,Other,,,,772993.01,2958839.79,42.36639522,-71.06770218
2015-04-11 19:20:06+00,bike,Intersection,,TREMONT ST,CAMDEN ST,769176.6,2948626.15,42.33842094,-71.0820092
2015-04-11 22:15:18+00,mv,Street,GENEVA AVE,EVERTON ST,BOWDOIN ST,771937.73,2935956.22,42.30372215,-71.07181606
2015-04-11 22:29:30+00,mv,Street,HYDE PARK AVE,RIVER ST,OAK ST,757897.43,2918247.41,42.25520413,-71.12422498
2015-04-11 23:33:57+00,mv,Intersection,,BELGRADE AVE,WEST ROXBURY PKWY,751473.57,2929445.61,42.28600783,-71.14777968
2015-04-12 00:55:45+00,mv,Street,BENNINGTON ST,WESTBROOK ST,WORDSWORTH ST,787170.54,2965374.11,42.38395029,-71.01500412
2015-04-12 08:02:06+00,mv,Intersection,,SEAVER ST,MAPLE ST,767779.79,2937082.62,42.30676366,-71.08738205
2015-04-12 09:53:13+00,ped,Intersection,,DORCHESTER AVE,ASHMONT ST,774058.3,2929447.36,42.2857264,-71.06431585
2015-04-12 11:37:48+00,mv,Intersection,,WASHINGTON ST,BRAGDON ST,765218.33,2940922.63,42.31733446,-71.09678415
2015-04-12 11:47:34+00,mv,Intersection,,HYDE PARK AVE,WEBSTER ST,758114.58,2919560.34,42.25880401,-71.12339848
2015-04-12 18:40:06+00,bike,Street,COMMONWEALTH AVE,CUMMINGTON MALL,GRANBY ST,763208.72,2952590.06,42.34958858,-71.10396652
2015-04-12 18:48:06+00,mv,Intersection,,WASHINGTON ST,CIRCUIT ST,767606.54,2943988.14,42.32571503,-71.08789918
2015-04-12 19:59:02+00,ped,Street,ALLSTATE RD,WILLOW CT,FRONTAGE RD,774630.97,2944254.81,42.32648522,-71.06229832
2015-04-12 20:01:27+00,mv,Intersection,,E BERKELEY ST,CASTLE CT,772938.66,2950926.81,42.34468259,-71.06805158
2015-04-12 21:06:33+00,ped,Intersection,,E BROADWAY,I ST,780560.08,2947648.44,42.3355773,-71.03992531
2015-04-12 21:42:04+00,mv,Other,,,,776432.04,2943325.15,42.32377412,-71.05527614
2015-04-12 21:51:56+00,bike,Intersection,,DORCHESTER AVE,LINDEN ST,775517.61,2936849.87,42.30601871,-71.05878137
2015-04-12 23:58:11+00,ped,Street,STUART ST,TRINITY PL,CLARENDON ST,770954.24,2952355.83,42.34861927,-71.07535859
2015-04-13 05:11:34+00,ped,Street,MASSACHUSETTS AVE,ALBANY ST,MELNEA CASS BLVD,771560.33,2946684.58,42.33316978,-71.07306004
2015-04-13 07:42:41+00,mv,Street,BIRD ST,GLENDALE ST,SAYWARD ST,772670.69,2939611.29,42.31381884,-71.06961969
2015-04-13 14:22:17+00,mv,Street,COMMONWEALTH AVE,HEREFORD ST,MASSACHUSETTS AVE,767678.93,2952782.53,42.34960584,-71.08737149
2015-04-13 15:55:59+00,mv,Street,BLAKE ST,RIVER ST,BIRCHCROFT RD,762500.81,2921996.96,42.26537968,-71.107375
2015-04-13 18:17:56+00,mv,Intersection,,MELNEA CASS BLVD,TREMONT ST,767678.15,2947519.82,42.33540515,-71.08757123
2015-04-13 20:05:01+00,mv,Intersection,,BOWDOIN ST,OLNEY ST,772927.61,2936542.87,42.30521265,-71.0683617
2015-04-13 22:50:36+00,mv,Intersection,,RIVER ST,WACHUSETT ST,763713.25,2921345.59,42.26363319,-71.10268624
2015-04-13 23:18:48+00,ped,Street,BROOKLINE AVE,PILGRIM RD,SHORT ST,763210.6,2950059.49,42.34226176,-71.10375282
